{'name': '中国农业银行(顺德碧江支行)', 'location': {'lat': 22.952884, 'lng': 113.266303}, 'address': '佛山市顺德区北滘镇碧江大道6号', 'province': '广东省', 'city': '佛山市', 'area': '顺德区', 'street_id': 'c5ddcc08c0b4e5c6d913188c', 'telephone': '(0757)26634996', 'detail': 1, 'uid': 'c5ddcc08c0b4e5c6d913188c', 'detail_info': {'tag': '金融;银行', 'navi_location': {'lng': 113.26642607689, 'lat': 22.952890900702}, 'type': 'life', 'detail_url': 'http://api.map.baidu.com/place/detail?uid=c5ddcc08c0b4e5c6d913188c&output=html&source=placeapi_v2', 'overall_rating': '4.5', 'image_num': '6', 'comment_num': '3', 'children': []}}
{'name': '招商银行(碧桂支行)', 'location': {'lat': 22.950208, 'lng': 113.28237}, 'address': '佛山市顺德区北滘镇碧桂园南九路1号', 'province': '广东省', 'city': '佛山市', 'area': '顺德区', 'telephone': '(0757)23273302', 'detail': 1, 'uid': '5e96440594ef415687154109', 'detail_info': {'tag': '金融;银行', 'navi_location': {'lng': 113.28234891754, 'lat': 22.950102686568}, 'type': 'life', 'detail_url': 'http://api.map.baidu.com/place/detail?uid=5e96440594ef415687154109&output=html&source=placeapi_v2', 'overall_rating': '5.0', 'image_num': '6', 'comment_num': '4', 'children': []}}
{'name': '中国银行(顺德泰宁支行)', 'location': {'lat': 22.948439, 'lng': 113.268167}, 'address': '佛山市顺德区北滘镇碧江大道54号', 'province': '广东省', 'city': '佛山市', 'area': '顺德区', 'telephone': '(0757)26635892', 'detail': 1, 'uid': '631c4157a2140a6130f71d8c', 'detail_info': {'tag': '金融;银行', 'navi_location': {'lng': 113.26827037176, 'lat': 22.948473075787}, 'type': 'life', 'detail_url': 'http://api.map.baidu.com/place/detail?uid=631c4157a2140a6130f71d8c&output=html&source=placeapi_v2', 'overall_rating': '2.8', 'image_num': '6', 'comment_num': '8', 'children': []}}
{'name': '中国建设银行(顺德碧桂园支行)', 'location': {'lat': 22.954934, 'lng': 113.281233}, 'address': '北窖镇碧江村碧桂园正苑国际会所旁', 'province': '广东省', 'city': '佛山市', 'area': '顺德区', 'telephone': '(0757)22396912', 'detail': 1, 'uid': '0683020051c5060ba2d230e0', 'detail_info': {'tag': '金融;银行', 'navi_location': {'lng': 113.28118729443, 'lat': 22.954810954626}, 'type': 'life', 'detail_url': 'http://api.map.baidu.com/place/detail?uid=0683020051c5060ba2d230e0&output=html&source=placeapi_v2', 'overall_rating': '3.5', 'image_num': '1', 'comment_num': '2', 'children': []}}
{'name': '中国工商银行(佛山顺德碧桂支行)', 'location': {'lat': 22.960469, 'lng': 113.279828}, 'address': '广东省佛山市顺德区北滘镇碧碧桂园写字楼东楼16~17A号', 'province': '广东省', 'city': '佛山市', 'area': '顺德区', 'street_id': '2a7a25ecefe819636d3e1b8c', 'telephone': '(0757)26608877', 'detail': 1, 'uid': '2a7a25ecefe819636d3e1b8c', 'detail_info': {'tag': '金融;银行', 'navi_location': {'lng': 113.27962391676, 'lat': 22.960421381603}, 'type': 'life', 'detail_url': 'http://api.map.baidu.com/place/detail?uid=2a7a25ecefe819636d3e1b8c&output=html&source=placeapi_v2', 'overall_rating': '5.0', 'image_num': '7', 'comment_num': '3', 'children': []}}
{'name': '中国农业银行(顺德丹桂支行)', 'location': {'lat': 22.952952, 'lng': 113.282994}, 'address': '碧桂园南一路3号', 'province': '广东省', 'city': '佛山市', 'area': '顺德区', 'telephone': '(0757)26326298', 'detail': 1, 'uid': '02770f2a8a65227d210262c4', 'detail_info': {'tag': '金融;银行', 'navi_location': {'lng': 113.28298121772, 'lat': 22.953336377623}, 'type': 'life', 'detail_url': 'http://api.map.baidu.com/place/detail?uid=02770f2a8a65227d210262c4&output=html&source=placeapi_v2', 'overall_rating': '2.7', 'image_num': '2', 'comment_num': '3', 'children': []}}
{'name': '中国邮政储蓄银行(碧江支行)', 'location': {'lat': 22.952542, 'lng': 113.266817}, 'address': '广东省佛山市顺德区碧江大道17号', 'province': '广东省', 'city': '佛山市', 'area': '顺德区', 'street_id': 'dffd631ccc43e1bc39221c8c', 'telephone': '(0757)26634963', 'detail': 1, 'uid': 'dffd631ccc43e1bc39221c8c', 'detail_info': {'tag': '金融;银行', 'navi_location': {'lng': 113.2666144099, 'lat': 22.952472793859}, 'type': 'life', 'detail_url': 'http://api.map.baidu.com/place/detail?uid=dffd631ccc43e1bc39221c8c&output=html&source=placeapi_v2', 'overall_rating': '3.0', 'image_num': '8', 'comment_num': '3', 'children': []}}
{'name': '顺德农村商业银行(北滘碧江支行)', 'location': {'lat': 22.94803, 'lng': 113.268981}, 'address': '广东省佛山市顺德区泰宁西路4号', 'province': '广东省', 'city': '佛山市', 'area': '顺德区', 'telephone': '(0757)26636779', 'detail': 1, 'uid': '691305233befa876725e802d', 'detail_info': {'tag': '金融;信用社', 'navi_location': {'lng': 113.26901888353, 'lat': 22.948206090514}, 'type': 'life', 'detail_url': 'http://api.map.baidu.com/place/detail?uid=691305233befa876725e802d&output=html&source=placeapi_v2', 'overall_rating': '1.0', 'image_num': '8', 'comment_num': '3', 'children': []}}
{'name': '顺德农商银行', 'location': {'lat': 22.955163, 'lng': 113.279798}, 'address': '北滘镇碧桂园正苑西一街一号', 'province': '广东省', 'city': '佛山市', 'area': '顺德区', 'detail': 1, 'uid': 'ab7fae0bd3416b99c16c14df', 'detail_info': {'tag': '金融;银行', 'type': 'life', 'detail_url': 'http://api.map.baidu.com/place/detail?uid=ab7fae0bd3416b99c16c14df&output=html&source=placeapi_v2', 'overall_rating': '3.0', 'image_num': '2', 'comment_num': '3', 'children': []}}
{'name': '中国农业银行24小时自助银行(顺德桂园支行)', 'location': {'lat': 22.94822, 'lng': 113.267845}, 'address': '广东省佛山市顺德区泰宁路64', 'province': '广东省', 'city': '佛山市', 'area': '顺德区', 'detail': 1, 'uid': '23b68fade346ee9482288a80', 'detail_info': {'tag': '金融;atm', 'navi_location': {'lng': 113.26789317957, 'lat': 22.948194827954}, 'type': 'life', 'detail_url': 'http://api.map.baidu.com/place/detail?uid=23b68fade346ee9482288a80&output=html&source=placeapi_v2', 'overall_rating': '4.0', 'image_num': '6', 'comment_num': '3', 'children': []}}
{'name': '中国银行ATM', 'location': {'lat': 22.946311, 'lng': 113.265398}, 'address': '佛山市顺德区北滘镇碧江泰宁西路51号万象时尚广场F1', 'province': '广东省', 'city': '佛山市', 'area': '顺德区', 'detail': 1, 'uid': '319a5a9dec22c01ce81e97f4', 'detail_info': {'tag': '金融;atm', 'indoor_floor': 'F1', 'type': 'life', 'detail_url': 'http://api.map.baidu.com/place/detail?uid=319a5a9dec22c01ce81e97f4&output=html&source=placeapi_v2', 'image_num': '1', 'children': []}}
{'name': '中国农业银行(顺德碧桂支行)', 'location': {'lat': 22.96014, 'lng': 113.278811}, 'address': '顺德区碧桂园办公楼5-9号', 'province': '广东省', 'city': '佛山市', 'area': '顺德区', 'street_id': 'cc0849a0a26eea509503198c', 'telephone': '(0757)85579383,(0757)26632318', 'detail': 1, 'uid': 'cc0849a0a26eea509503198c', 'detail_info': {'tag': '金融;银行', 'navi_location': {'lng': 113.27916235481, 'lat': 22.959908252103}, 'type': 'life', 'detail_url': 'http://api.map.baidu.com/place/detail?uid=cc0849a0a26eea509503198c&output=html&source=placeapi_v2', 'overall_rating': '0.0', 'image_num': '9', 'comment_num': '2', 'children': []}}
{'name': '中国建设银行ATM', 'location': {'lat': 22.941713, 'lng': 113.26851}, 'address': '广东省佛山市顺德区坤洲中路88号附近', 'province': '广东省', 'city': '佛山市', 'area': '顺德区', 'detail': 1, 'uid': 'd202ee6cab30da22d12dd619', 'detail_info': {'tag': '金融;atm', 'navi_location': {'lng': 113.26844185559, 'lat': 22.941683144461}, 'type': 'life', 'detail_url': 'http://api.map.baidu.com/place/detail?uid=d202ee6cab30da22d12dd619&output=html&source=placeapi_v2', 'overall_rating': '0.0', 'image_num': '9', 'comment_num': '1', 'children': []}}
{'name': '顺德农商银行(西海分理处)', 'location': {'lat': 22.921096, 'lng': 113.265144}, 'address': '西海大道1号', 'province': '广东省', 'city': '佛山市', 'area': '顺德区', 'telephone': '(0757)26636427', 'detail': 1, 'uid': '22e11407895ac5cad5b74e2a', 'detail_info': {'tag': '金融;信用社', 'navi_location': {'lng': 113.26525765001, 'lat': 22.92123551433}, 'type': 'life', 'detail_url': 'http://api.map.baidu.com/place/detail?uid=22e11407895ac5cad5b74e2a&output=html&source=placeapi_v2', 'overall_rating': '0.0', 'image_num': '5', 'comment_num': '1', 'children': []}}
{'name': '中国邮政储蓄银行24小时自助银行(碧江支行)', 'location': {'lat': 22.952544, 'lng': 113.266778}, 'address': '广东省佛山市顺德区碧江大道12', 'province': '广东省', 'city': '佛山市', 'area': '顺德区', 'street_id': 'bb1d38e42b418d300c0a7065', 'detail': 1, 'uid': 'bb1d38e42b418d300c0a7065', 'detail_info': {'tag': '金融;atm', 'type': 'life', 'detail_url': 'http://api.map.baidu.com/place/detail?uid=bb1d38e42b418d300c0a7065&output=html&source=placeapi_v2', 'overall_rating': '0.0', 'image_num': '6', 'comment_num': '1', 'children': []}}
{'name': '中国银行24小时自助银行(北窖镇)', 'location': {'lat': 22.948439, 'lng': 113.268167}, 'address': '佛山市顺德区北窖镇碧江大道54号', 'province': '广东省', 'city': '佛山市', 'area': '顺德区', 'detail': 1, 'uid': '0ce65c2d5c0976592c47338c', 'detail_info': {'tag': '金融;atm', 'type': 'life', 'detail_url': 'http://api.map.baidu.com/place/detail?uid=0ce65c2d5c0976592c47338c&output=html&source=placeapi_v2', 'overall_rating': '1.0', 'image_num': '10', 'comment_num': '4', 'children': []}}
{'name': '中国建设银行24小时自助银行', 'location': {'lat': 22.927868, 'lng': 113.27478}, 'address': '广东省佛山市顺德区S43(广珠西线高速)', 'province': '广东省', 'city': '佛山市', 'area': '顺德区', 'detail': 1, 'uid': 'f0986eebe3d600d7246e98f9', 'detail_info': {'tag': '金融;atm', 'type': 'life', 'detail_url': 'http://api.map.baidu.com/place/detail?uid=f0986eebe3d600d7246e98f9&output=html&source=placeapi_v2', 'image_num': '3', 'children': []}}
{'name': '中国建设银行24小时自助银行', 'location': {'lat': 22.954808, 'lng': 113.265568}, 'address': '广东省佛山市顺德区珠江大道2号附近', 'province': '广东省', 'city': '佛山市', 'area': '顺德区', 'detail': 1, 'uid': 'c542701856ee12e3da2f2873', 'detail_info': {'tag': '金融;atm', 'type': 'life', 'detail_url': 'http://api.map.baidu.com/place/detail?uid=c542701856ee12e3da2f2873&output=html&source=placeapi_v2', 'image_num': '2', 'children': []}}
{'name': '中国农业银行24小时自助银行(官三线)', 'location': {'lat': 22.954509, 'lng': 113.287895}, 'address': '佛山市顺德区誉晖花园23号铺', 'province': '广东省', 'city': '佛山市', 'area': '顺德区', 'detail': 1, 'uid': '68ae2b670f54020407fef589', 'detail_info': {'tag': '金融;atm', 'navi_location': {'lng': 113.28789288006, 'lat': 22.954700240157}, 'type': 'life', 'detail_url': 'http://api.map.baidu.com/place/detail?uid=68ae2b670f54020407fef589&output=html&source=placeapi_v2', 'overall_rating': '4.0', 'image_num': '12', 'comment_num': '2', 'children': []}}
{'name': '顺德农商银行ATM(东胜支行)', 'location': {'lat': 22.943086, 'lng': 113.278328}, 'address': '佛山市顺德区北滘镇碧桂园碧桂西苑翠茵居十一街2-6号', 'province': '广东省', 'city': '佛山市', 'area': '顺德区', 'detail': 1, 'uid': 'e63d746e8cdd61e60a69d96e', 'detail_info': {'tag': '金融;atm', 'type': 'life', 'detail_url': 'http://api.map.baidu.com/place/detail?uid=e63d746e8cdd61e60a69d96e&output=html&source=placeapi_v2', 'image_num': '1', 'children': []}}
{'name': '中国农业银行24小时自助银行(顺德碧江支行)', 'location': {'lat': 22.952854, 'lng': 113.2663}, 'address': '广东省佛山市顺德区碧江大道6', 'province': '广东省', 'city': '佛山市', 'area': '顺德区', 'street_id': '480b24d0c31c9ff19dec2b8c', 'detail': 1, 'uid': '480b24d0c31c9ff19dec2b8c', 'detail_info': {'tag': '金融;atm', 'navi_location': {'lng': 113.2664071433, 'lat': 22.952931608796}, 'type': 'life', 'detail_url': 'http://api.map.baidu.com/place/detail?uid=480b24d0c31c9ff19dec2b8c&output=html&source=placeapi_v2', 'overall_rating': '0.0', 'image_num': '6', 'comment_num': '2', 'children': []}}
{'name': '中国农业银行24小时自助银行(佛山顺德桃西支行)', 'location': {'lat': 22.923915, 'lng': 113.264512}, 'address': '佛山市顺德区烈士中路78号', 'province': '广东省', 'city': '佛山市', 'area': '顺德区', 'detail': 1, 'uid': '6914fa05b6cc3c9afe0eb0f6', 'detail_info': {'tag': '金融;atm', 'navi_location': {'lng': 113.26441953097, 'lat': 22.923826833812}, 'type': 'life', 'detail_url': 'http://api.map.baidu.com/place/detail?uid=6914fa05b6cc3c9afe0eb0f6&output=html&source=placeapi_v2', 'overall_rating': '0.0', 'image_num': '8', 'comment_num': '1', 'children': []}}
{'name': '中国农业银行ATM(顺德碧桂支行)', 'location': {'lat': 22.960033, 'lng': 113.279065}, 'address': '广东省佛山市顺德区韦涌人民路碧桂园东区碧桂园集团旁', 'province': '广东省', 'city': '佛山市', 'area': '顺德区', 'street_id': '34e48508a05df29cd8d89123', 'detail': 1, 'uid': '34e48508a05df29cd8d89123', 'detail_info': {'tag': '金融;atm', 'navi_location': {'lng': 113.27894661147, 'lat': 22.960097791574}, 'type': 'life', 'detail_url': 'http://api.map.baidu.com/place/detail?uid=34e48508a05df29cd8d89123&output=html&source=placeapi_v2', 'overall_rating': '0.0', 'image_num': '5', 'comment_num': '1', 'children': []}}
{'name': '顺德农商银行24小时自助银行(三桂大道店)', 'location': {'lat': 22.95431, 'lng': 113.290188}, 'address': '三桂大道2号', 'province': '广东省', 'city': '佛山市', 'area': '顺德区', 'detail': 1, 'uid': 'e3e2cd9d20685b9dc7f50d2a', 'detail_info': {'tag': '金融;atm', 'navi_location': {'lng': 113.29023918129, 'lat': 22.954174344572}, 'type': 'life', 'detail_url': 'http://api.map.baidu.com/place/detail?uid=e3e2cd9d20685b9dc7f50d2a&output=html&source=placeapi_v2', 'overall_rating': '3.0', 'image_num': '4', 'comment_num': '3', 'children': []}}
{'name': '顺德区农村商业银行ATM(碧桂园)', 'location': {'lat': 22.930223, 'lng': 113.27531}, 'address': '广东省佛山市顺德区碧桂园总部大楼', 'province': '广东省', 'city': '佛山市', 'area': '顺德区', 'detail': 1, 'uid': '883742328049aee58bf15d2d', 'detail_info': {'tag': '金融;atm', 'type': 'life', 'detail_url': 'http://api.map.baidu.com/place/detail?uid=883742328049aee58bf15d2d&output=html&source=placeapi_v2', 'image_num': '1', 'children': []}}
{'name': '中国农业银行24小时自助银行(西海自助银行)', 'location': {'lat': 22.92036, 'lng': 113.262879}, 'address': '佛山市顺德区西海大道与小学东路交叉路口往东约50米(西海小学东侧约100米)', 'province': '广东省', 'city': '佛山市', 'area': '顺德区', 'detail': 1, 'uid': '873f40410e39ca38a1a93491', 'detail_info': {'tag': '金融;atm', 'navi_location': {'lng': 113.2628954344, 'lat': 22.92029596007}, 'type': 'life', 'detail_url': 'http://api.map.baidu.com/place/detail?uid=873f40410e39ca38a1a93491&output=html&source=placeapi_v2', 'overall_rating': '0.0', 'image_num': '2', 'children': []}}
{'name': '顺德农村商业银行24小时自助银行', 'location': {'lat': 22.921073, 'lng': 113.265101}, 'address': '佛山市顺德区西海大道1号', 'province': '广东省', 'city': '佛山市', 'area': '顺德区', 'detail': 1, 'uid': 'b9a43efeb1ac6ffce215f9dc', 'detail_info': {'tag': '金融;atm', 'navi_location': {'lng': 113.26529424429, 'lat': 22.921131531306}, 'type': 'life', 'detail_url': 'http://api.map.baidu.com/place/detail?uid=b9a43efeb1ac6ffce215f9dc&output=html&source=placeapi_v2', 'overall_rating': '0.0', 'image_num': '7', 'comment_num': '3', 'children': []}}
{'name': '顺德碧桂园度假村-自动取款机', 'location': {'lat': 22.942853, 'lng': 113.286426}, 'address': '北滘镇碧桂园内', 'province': '广东省', 'city': '佛山市', 'area': '顺德区', 'detail': 1, 'uid': '9c43beb2cedbb1cbf942b254', 'detail_info': {'tag': '金融;atm', 'navi_location': {'lng': 113.28635123689, 'lat': 22.942753449079}, 'type': 'life', 'detail_url': 'http://api.map.baidu.com/place/detail?uid=9c43beb2cedbb1cbf942b254&output=html&source=placeapi_v2', 'image_num': '1', 'children': []}}
{'name': '顺德农商银行(北滘桃村分理处)', 'location': {'lat': 22.925529, 'lng': 113.264341}, 'address': '佛山市顺德区北滘镇桃村村委会桃源大道2号', 'province': '广东省', 'city': '佛山市', 'area': '顺德区', 'telephone': '(0757)26636761', 'detail': 1, 'uid': 'fd007c5e09a20212a8f72936', 'detail_info': {'tag': '金融;信用社', 'navi_location': {'lng': 113.26432003431, 'lat': 22.925648629743}, 'type': 'life', 'detail_url': 'http://api.map.baidu.com/place/detail?uid=fd007c5e09a20212a8f72936&output=html&source=placeapi_v2', 'overall_rating': '0.0', 'image_num': '2', 'comment_num': '1', 'children': []}}
{'name': '中国工商银行24小时自助银行(顺德碧桂支行)', 'location': {'lat': 22.960434, 'lng': 113.279794}, 'address': '北滘镇三桂村委会碧桂园碧桂豪园度假村', 'province': '广东省', 'city': '佛山市', 'area': '顺德区', 'detail': 1, 'uid': 'dc7f5cd3226ca1e0725e8083', 'detail_info': {'tag': '金融;atm', 'type': 'life', 'detail_url': 'http://api.map.baidu.com/place/detail?uid=dc7f5cd3226ca1e0725e8083&output=html&source=placeapi_v2', 'overall_rating': '0.0', 'image_num': '8', 'comment_num': '2', 'children': []}}
{'name': '顺德农商银行(北滘承德支行)', 'location': {'lat': 22.951156, 'lng': 113.266871}, 'address': '佛山市顺德区承德路28号', 'province': '广东省', 'city': '佛山市', 'area': '顺德区', 'telephone': '(0757)26634699', 'detail': 1, 'uid': '631c41571bb0e31f31f71d2f', 'detail_info': {'tag': '金融;信用社', 'type': 'life', 'detail_url': 'http://api.map.baidu.com/place/detail?uid=631c41571bb0e31f31f71d2f&output=html&source=placeapi_v2', 'overall_rating': '1.7', 'image_num': '7', 'comment_num': '5', 'children': []}}
{'name': '中国工商银行24小时自助银行', 'location': {'lat': 22.906164, 'lng': 113.27257}, 'address': '佛山市顺德区北滘镇西海二支工业区南二路', 'province': '广东省', 'city': '佛山市', 'area': '顺德区', 'detail': 1, 'uid': 'd5195042778a18a53a04b1be', 'detail_info': {'tag': '金融;atm', 'navi_location': {'lng': 113.27246600017, 'lat': 22.906011006924}, 'type': 'life', 'detail_url': 'http://api.map.baidu.com/place/detail?uid=d5195042778a18a53a04b1be&output=html&source=placeapi_v2', 'image_num': '2', 'children': []}}
{'name': '中国建设银行(东怡支行)', 'location': {'lat': 22.941639, 'lng': 113.399303}, 'address': '广东省广州市番禺区石基镇清河东路石岗西村段24号', 'province': '广东省', 'city': '广州市', 'area': '番禺区', 'street_id': '435d7aea342e6d485abbbc07', 'telephone': '(020)84610194', 'detail': 1, 'uid': '435d7aea342e6d485abbbc07', 'detail_info': {'tag': '金融;银行', 'navi_location': {'lng': 113.39936898083, 'lat': 22.941667926172}, 'type': 'life', 'detail_url': 'http://api.map.baidu.com/place/detail?uid=435d7aea342e6d485abbbc07&output=html&source=placeapi_v2', 'overall_rating': '3.0', 'image_num': '10', 'comment_num': '10', 'children': []}}
{'name': '中国建设银行(番禺支行营业部)', 'location': {'lat': 22.947634, 'lng': 113.37026}, 'address': '市桥镇繁华路41号', 'province': '广东省', 'city': '广州市', 'area': '番禺区', 'street_id': '48eb00587b9449d32fe67b03', 'telephone': '(020)84837032', 'detail': 1, 'uid': '48eb00587b9449d32fe67b03', 'detail_info': {'tag': '金融;银行', 'navi_location': {'lng': 113.37034481784, 'lat': 22.947834235693}, 'type': 'life', 'detail_url': 'http://api.map.baidu.com/place/detail?uid=48eb00587b9449d32fe67b03&output=html&source=placeapi_v2', 'overall_rating': '2.2', 'image_num': '21', 'comment_num': '17', 'children': []}}
{'name': '中国工商银行(广州番禺平康支行)', 'location': {'lat': 22.944435, 'lng': 113.378724}, 'address': '广州市番禺区市桥镇平康路51号', 'province': '广东省', 'city': '广州市', 'area': '番禺区', 'street_id': '41572e00155946b5b45f1e1f', 'telephone': '(020)84620292,(020)84621884', 'detail': 1, 'uid': '41572e00155946b5b45f1e1f', 'detail_info': {'tag': '金融;银行', 'navi_location': {'lng': 113.37854795601, 'lat': 22.944771545873}, 'type': 'life', 'detail_url': 'http://api.map.baidu.com/place/detail?uid=41572e00155946b5b45f1e1f&output=html&source=placeapi_v2', 'overall_rating': '3.1', 'image_num': '9', 'comment_num': '12', 'children': []}}
{'name': '招商银行(番禺支行)', 'location': {'lat': 22.946284, 'lng': 113.371911}, 'address': '广东省广州市番禺区禺山大道10号', 'province': '广东省', 'city': '广州市', 'area': '番禺区', 'street_id': '2ca571f033de08ed8605bf93', 'telephone': '(020)84823177', 'detail': 1, 'uid': '2ca571f033de08ed8605bf93', 'detail_info': {'tag': '金融;银行', 'navi_location': {'lng': 113.3719544295, 'lat': 22.946140704246}, 'type': 'life', 'detail_url': 'http://api.map.baidu.com/place/detail?uid=2ca571f033de08ed8605bf93&output=html&source=placeapi_v2', 'overall_rating': '2.8', 'image_num': '10', 'comment_num': '25', 'children': []}}
{'name': '广州银行(番禺支行)', 'location': {'lat': 22.946328, 'lng': 113.368262}, 'address': '广东省广州市番禺区禺山大道68号', 'province': '广东省', 'city': '广州市', 'area': '番禺区', 'street_id': '4cf8d24e2035cfe49cf779c6', 'telephone': '(020)84818888', 'detail': 1, 'uid': '4cf8d24e2035cfe49cf779c6', 'detail_info': {'tag': '金融;银行', 'navi_location': {'lng': 113.36836672486, 'lat': 22.946195246134}, 'type': 'life', 'detail_url': 'http://api.map.baidu.com/place/detail?uid=4cf8d24e2035cfe49cf779c6&output=html&source=placeapi_v2', 'overall_rating': '3.0', 'image_num': '10', 'comment_num': '8', 'children': []}}
{'name': '中国银行(番禺广场支行)', 'location': {'lat': 22.941065, 'lng': 113.392077}, 'address': '广东省广州市番禺市桥镇清河东路338号', 'province': '广东省', 'city': '广州市', 'area': '番禺区', 'street_id': 'd82d6697573647a6d518b7ff', 'telephone': '(020)84698834', 'detail': 1, 'uid': 'd82d6697573647a6d518b7ff', 'detail_info': {'tag': '金融;银行', 'navi_location': {'lng': 113.39202992632, 'lat': 22.941441387916}, 'type': 'life', 'detail_url': 'http://api.map.baidu.com/place/detail?uid=d82d6697573647a6d518b7ff&output=html&source=placeapi_v2', 'overall_rating': '3.5', 'image_num': '16', 'comment_num': '26', 'children': []}}
{'name': '华夏银行(广州番禺支行)', 'location': {'lat': 22.95212, 'lng': 113.380454}, 'address': '广东省广州市番禺区富华东路183号', 'province': '广东省', 'city': '广州市', 'area': '番禺区', 'street_id': '08f1f1f5941b33ca88db73c6', 'telephone': '(020)34511911', 'detail': 1, 'uid': '08f1f1f5941b33ca88db73c6', 'detail_info': {'tag': '金融;银行', 'navi_location': {'lng': 113.38045906775, 'lat': 22.952284811187}, 'type': 'life', 'detail_url': 'http://api.map.baidu.com/place/detail?uid=08f1f1f5941b33ca88db73c6&output=html&source=placeapi_v2', 'overall_rating': '1.8', 'image_num': '13', 'comment_num': '17', 'children': []}}
{'name': '中国农业银行(广州番禺清河支行)', 'location': {'lat': 22.937171, 'lng': 113.389101}, 'address': '广州市番禺区盛兴大街31号', 'province': '广东省', 'city': '广州市', 'area': '番禺区', 'street_id': '41710cd808a51cb178f79652', 'telephone': '(020)34583477', 'detail': 1, 'uid': '41710cd808a51cb178f79652', 'detail_info': {'tag': '金融;银行', 'navi_location': {'lng': 113.38903539796, 'lat': 22.936968138671}, 'type': 'life', 'detail_url': 'http://api.map.baidu.com/place/detail?uid=41710cd808a51cb178f79652&output=html&source=placeapi_v2', 'overall_rating': '2.3', 'image_num': '5', 'comment_num': '8', 'children': []}}
{'name': '中国建设银行(广州番禺富华支行)', 'location': {'lat': 22.953041, 'lng': 113.37628}, 'address': '广州市番禺区富华东路49、51号', 'province': '广东省', 'city': '广州市', 'area': '番禺区', 'street_id': '2848ffd65595cb7248cc4a05', 'telephone': '(020)84899357', 'detail': 1, 'uid': '2848ffd65595cb7248cc4a05', 'detail_info': {'tag': '金融;银行', 'navi_location': {'lng': 113.37628622216, 'lat': 22.953111763234}, 'type': 'life', 'detail_url': 'http://api.map.baidu.com/place/detail?uid=2848ffd65595cb7248cc4a05&output=html&source=placeapi_v2', 'overall_rating': '2.2', 'image_num': '8', 'comment_num': '21', 'children': []}}
{'name': '中国建设银行(东区支行)', 'location': {'lat': 22.946647, 'lng': 113.388277}, 'address': '广东省广州市番禺区市桥街平康路330号', 'province': '广东省', 'city': '广州市', 'area': '番禺区', 'street_id': '38a83bf431d51cacd9ecedee', 'telephone': '(020)84635999', 'detail': 1, 'uid': '38a83bf431d51cacd9ecedee', 'detail_info': {'tag': '金融;银行', 'navi_location': {'lng': 113.38823485953, 'lat': 22.946530721173}, 'type': 'life', 'detail_url': 'http://api.map.baidu.com/place/detail?uid=38a83bf431d51cacd9ecedee&output=html&source=placeapi_v2', 'overall_rating': '3.5', 'image_num': '15', 'comment_num': '4', 'children': []}}
{'name': '中国农业银行(广州番禺德安支行)', 'location': {'lat': 22.941326, 'lng': 113.375155}, 'address': '广州市番禺区工业路71号', 'province': '广东省', 'city': '广州市', 'area': '番禺区', 'street_id': 'dbb883d003eb93607402692d', 'telephone': '(020)84618474', 'detail': 1, 'uid': 'dbb883d003eb93607402692d', 'detail_info': {'tag': '金融;银行', 'navi_location': {'lng': 113.37528656982, 'lat': 22.941360942945}, 'type': 'life', 'detail_url': 'http://api.map.baidu.com/place/detail?uid=dbb883d003eb93607402692d&output=html&source=placeapi_v2', 'overall_rating': '2.3', 'image_num': '5', 'comment_num': '3', 'children': []}}
{'name': '中国银行(广州番禺北城支行)', 'location': {'lat': 22.96055, 'lng': 113.368313}, 'address': '广东省广州市番禺区光明北路383号', 'province': '广东省', 'city': '广州市', 'area': '番禺区', 'street_id': '6f4bbc939d903d2971455b34', 'telephone': '(020)34517875', 'detail': 1, 'uid': '6f4bbc939d903d2971455b34', 'detail_info': {'tag': '金融;银行', 'navi_location': {'lng': 113.36857270272, 'lat': 22.960548974803}, 'type': 'life', 'detail_url': 'http://api.map.baidu.com/place/detail?uid=6f4bbc939d903d2971455b34&output=html&source=placeapi_v2', 'overall_rating': '2.1', 'image_num': '9', 'comment_num': '9', 'children': []}}
{'name': '中国工商银行(广州番禺支行营业室)', 'location': {'lat': 22.952326, 'lng': 113.367835}, 'address': '番禺区市桥光明北路209号', 'province': '广东省', 'city': '广州市', 'area': '番禺区', 'street_id': '6deee3081196306a29fc48c6', 'telephone': '(020)34517010', 'detail': 1, 'uid': '6deee3081196306a29fc48c6', 'detail_info': {'tag': '金融;银行', 'navi_location': {'lng': 113.36817351821, 'lat': 22.952442514162}, 'type': 'life', 'detail_url': 'http://api.map.baidu.com/place/detail?uid=6deee3081196306a29fc48c6&output=html&source=placeapi_v2', 'overall_rating': '4.0', 'image_num': '17', 'comment_num': '14', 'children': []}}
{'name': '平安银行(广州番禺支行)', 'location': {'lat': 22.944327, 'lng': 113.377831}, 'address': '广州市番禺区市平康路1号', 'province': '广东省', 'city': '广州市', 'area': '番禺区', 'street_id': 'eb36750318eb2c1b00ec01c6', 'telephone': '(020)84690891,(020)84690893', 'detail': 1, 'uid': 'eb36750318eb2c1b00ec01c6', 'detail_info': {'tag': '金融;银行', 'navi_location': {'lng': 113.37776679134, 'lat': 22.944470208166}, 'type': 'life', 'detail_url': 'http://api.map.baidu.com/place/detail?uid=eb36750318eb2c1b00ec01c6&output=html&source=placeapi_v2', 'overall_rating': '4.2', 'image_num': '5', 'comment_num': '15', 'children': []}}
{'name': '中国民生银行(广州番禺支行)', 'location': {'lat': 22.95276, 'lng': 113.377005}, 'address': '广州市番禺区富华东路73号', 'province': '广东省', 'city': '广州市', 'area': '番禺区', 'street_id': '607da043711d004832870add', 'telephone': '(020)84802005,(020)84802001', 'detail': 1, 'uid': '607da043711d004832870add', 'detail_info': {'tag': '金融;银行', 'navi_location': {'lng': 113.37705241927, 'lat': 22.95292945002}, 'type': 'life', 'detail_url': 'http://api.map.baidu.com/place/detail?uid=607da043711d004832870add&output=html&source=placeapi_v2', 'overall_rating': '1.0', 'image_num': '3', 'comment_num': '2', 'children': []}}
{'name': '交通银行(广州东瀚园支行)', 'location': {'lat': 22.941153, 'lng': 113.400094}, 'address': '广州市番禺区大龙街广华南路47-61号首层', 'province': '广东省', 'city': '广州市', 'area': '番禺区', 'detail': 1, 'uid': '29ebe8e1659fff5479b55c5c', 'detail_info': {'tag': '金融;银行', 'navi_location': {'lng': 113.39993189154, 'lat': 22.941142351459}, 'type': 'life', 'detail_url': 'http://api.map.baidu.com/place/detail?uid=29ebe8e1659fff5479b55c5c&output=html&source=placeapi_v2', 'overall_rating': '5.0', 'image_num': '1', 'comment_num': '1', 'children': []}}
{'name': '中国农业银行(广州番禺平康支行)', 'location': {'lat': 22.946902, 'lng': 113.387372}, 'address': '广州市番禺区市桥镇平康路322号1楼', 'province': '广东省', 'city': '广州市', 'area': '番禺区', 'street_id': '669775d0428b0e25fd0eb00e', 'detail': 1, 'uid': '669775d0428b0e25fd0eb00e', 'detail_info': {'tag': '金融;银行', 'navi_location': {'lng': 113.38731940267, 'lat': 22.94675541284}, 'type': 'life', 'detail_url': 'http://api.map.baidu.com/place/detail?uid=669775d0428b0e25fd0eb00e&output=html&source=placeapi_v2', 'overall_rating': '1.1', 'image_num': '6', 'comment_num': '21', 'children': []}}
{'name': '中信银行(市桥支行)', 'location': {'lat': 22.953296, 'lng': 113.375553}, 'address': '富华东路25号', 'province': '广东省', 'city': '广州市', 'area': '番禺区', 'street_id': 'a5097bfa2f235c63f03cbac6', 'telephone': '(020)34516812,(020)34518888', 'detail': 1, 'uid': 'a5097bfa2f235c63f03cbac6', 'detail_info': {'tag': '金融;银行', 'navi_location': {'lng': 113.37571035533, 'lat': 22.95344848484}, 'type': 'life', 'detail_url': 'http://api.map.baidu.com/place/detail?uid=a5097bfa2f235c63f03cbac6&output=html&source=placeapi_v2', 'overall_rating': '3.9', 'image_num': '10', 'comment_num': '17', 'children': []}}
{'name': '招商银行(广州奥园广场支行)', 'location': {'lat': 22.930405, 'lng': 113.364951}, 'address': '广州市番禺区福德路317号奥园广场F1', 'province': '广东省', 'city': '广州市', 'area': '番禺区', 'street_id': '8ad91fb75a67cc262efaa7a5', 'telephone': '(020)34629888,(020)34629178', 'detail': 1, 'uid': '8ad91fb75a67cc262efaa7a5', 'detail_info': {'tag': '金融;银行', 'navi_location': {'lng': 113.36300834956, 'lat': 22.930109766467}, 'indoor_floor': 'F1', 'type': 'life', 'detail_url': 'http://api.map.baidu.com/place/detail?uid=8ad91fb75a67cc262efaa7a5&output=html&source=placeapi_v2', 'overall_rating': '3.8', 'image_num': '3', 'comment_num': '6', 'children': []}}
{'name': '中国建设银行(东兴支行)', 'location': {'lat': 22.93463, 'lng': 113.386039}, 'address': '广东省广州市番禺区市桥镇东兴路28号', 'province': '广东省', 'city': '广州市', 'area': '番禺区', 'street_id': '01f5815c362371e0631c67eb', 'telephone': '(020)84641107,(020)84625547', 'detail': 1, 'uid': '01f5815c362371e0631c67eb', 'detail_info': {'tag': '金融;银行', 'navi_location': {'lng': 113.385969722, 'lat': 22.93475593744}, 'type': 'life', 'detail_url': 'http://api.map.baidu.com/place/detail?uid=01f5815c362371e0631c67eb&output=html&source=placeapi_v2', 'overall_rating': '2.3', 'image_num': '8', 'comment_num': '5', 'children': []}}
{'name': '中国农业银行(番禺支行)', 'location': {'lat': 22.954417, 'lng': 113.368021}, 'address': '广东省广州市番禺区光明北路227号', 'province': '广东省', 'city': '广州市', 'area': '番禺区', 'street_id': 'b9913e10bbf58f5c58f6bea6', 'detail': 1, 'uid': 'b9913e10bbf58f5c58f6bea6', 'detail_info': {'tag': '金融;银行', 'navi_location': {'lng': 113.36815087552, 'lat': 22.954735200332}, 'type': 'life', 'detail_url': 'http://api.map.baidu.com/place/detail?uid=b9913e10bbf58f5c58f6bea6&output=html&source=placeapi_v2', 'overall_rating': '2.0', 'image_num': '13', 'comment_num': '24', 'children': []}}
{'name': '兴业银行(番禺支行)', 'location': {'lat': 22.950884, 'lng': 113.360553}, 'address': '广东省广州市番禺区市桥镇康乐路162号', 'province': '广东省', 'city': '广州市', 'area': '番禺区', 'street_id': '22e11407e0ff9ec9d4b74e8e', 'telephone': '(020)84666285,(020)34801520', 'detail': 1, 'uid': '22e11407e0ff9ec9d4b74e8e', 'detail_info': {'tag': '金融;银行', 'navi_location': {'lng': 113.36068142478, 'lat': 22.950776460067}, 'type': 'life', 'detail_url': 'http://api.map.baidu.com/place/detail?uid=22e11407e0ff9ec9d4b74e8e&output=html&source=placeapi_v2', 'overall_rating': '3.0', 'image_num': '14', 'comment_num': '8', 'children': []}}
{'name': '中国光大银行(广州番禺支行)', 'location': {'lat': 22.952592, 'lng': 113.368803}, 'address': '广州市番禺区富华西路49号', 'province': '广东省', 'city': '广州市', 'area': '番禺区', 'street_id': 'cc6a2df7198bf89b15a190e3', 'detail': 1, 'uid': 'cc6a2df7198bf89b15a190e3', 'detail_info': {'tag': '金融;银行', 'navi_location': {'lng': 113.36872675672, 'lat': 22.952803533277}, 'type': 'life', 'detail_url': 'http://api.map.baidu.com/place/detail?uid=cc6a2df7198bf89b15a190e3&output=html&source=placeapi_v2', 'overall_rating': '3.9', 'image_num': '16', 'comment_num': '18', 'children': []}}
{'name': '中信银行(石基镇支行)', 'location': {'lat': 22.941293, 'lng': 113.395484}, 'address': '石基镇清河东路罗家村段4号', 'province': '广东省', 'city': '广州市', 'area': '番禺区', 'telephone': '(020)34624613', 'detail': 1, 'uid': '08fc93df282517919b68b4ff', 'detail_info': {'tag': '金融;银行', 'navi_location': {'lng': 113.39563396396, 'lat': 22.941504845461}, 'type': 'life', 'detail_url': 'http://api.map.baidu.com/place/detail?uid=08fc93df282517919b68b4ff&output=html&source=placeapi_v2', 'overall_rating': '3.1', 'image_num': '5', 'comment_num': '10', 'children': []}}
{'name': '交通银行(广州番禺支行)', 'location': {'lat': 22.930525, 'lng': 113.364774}, 'address': '广东省广州市番禺区南街南华路307号', 'province': '广东省', 'city': '广州市', 'area': '番禺区', 'telephone': '(020)31047665', 'detail': 1, 'uid': 'ba778e3ec6422d9e40afe662', 'detail_info': {'tag': '金融;银行', 'navi_location': {'lng': 113.36464064882, 'lat': 22.930630888007}, 'indoor_floor': 'F1', 'type': 'life', 'detail_url': 'http://api.map.baidu.com/place/detail?uid=ba778e3ec6422d9e40afe662&output=html&source=placeapi_v2', 'overall_rating': '2.5', 'image_num': '5', 'comment_num': '2', 'children': []}}
{'name': '交通银行(广州市桥支行)', 'location': {'lat': 22.945911, 'lng': 113.368732}, 'address': '广东省广州市番禺区禺山大道91号', 'province': '广东省', 'city': '广州市', 'area': '番禺区', 'street_id': 'aa7efa6f47daeac92202620b', 'telephone': '(020)84825038,(020)84824988', 'detail': 1, 'uid': 'aa7efa6f47daeac92202620b', 'detail_info': {'tag': '金融;银行', 'navi_location': {'lng': 113.36875336543, 'lat': 22.946039543007}, 'type': 'life', 'detail_url': 'http://api.map.baidu.com/place/detail?uid=aa7efa6f47daeac92202620b&output=html&source=placeapi_v2', 'overall_rating': '2.4', 'image_num': '8', 'comment_num': '8', 'children': []}}
{'name': '中国工商银行(广州番禺喜盈支行)', 'location': {'lat': 22.924062, 'lng': 113.367327}, 'address': '番禺区南城路323号', 'province': '广东省', 'city': '广州市', 'area': '番禺区', 'street_id': '4c2b153a591f06a2f503b896', 'telephone': '(020)84649745', 'detail': 1, 'uid': '4c2b153a591f06a2f503b896', 'detail_info': {'tag': '金融;银行', 'navi_location': {'lng': 113.3671220552, 'lat': 22.924076580854}, 'type': 'life', 'detail_url': 'http://api.map.baidu.com/place/detail?uid=4c2b153a591f06a2f503b896&output=html&source=placeapi_v2', 'overall_rating': '2.3', 'image_num': '9', 'comment_num': '5', 'children': []}}
{'name': '中国农业银行(广州番禺亚运大道支行)', 'location': {'lat': 22.943658, 'lng': 113.411495}, 'address': '大龙街城区大道321号', 'province': '广东省', 'city': '广州市', 'area': '番禺区', 'street_id': '5b8e55bfb0967a6aac0457bb', 'detail': 1, 'uid': 'f4a33da91d1507093010afff', 'detail_info': {'tag': '金融;银行', 'navi_location': {'lng': 113.41169662047, 'lat': 22.943539856018}, 'type': 'life', 'detail_url': 'http://api.map.baidu.com/place/detail?uid=f4a33da91d1507093010afff&output=html&source=placeapi_v2', 'overall_rating': '0.0', 'image_num': '6', 'comment_num': '2', 'children': []}}
{'name': '中国银行(新城支行)', 'location': {'lat': 22.947514, 'lng': 113.372949}, 'address': '广东省广州市番禺区大北路128号', 'province': '广东省', 'city': '广州市', 'area': '番禺区', 'street_id': 'b388f9fd37bc4641b35c6ac6', 'telephone': '(020)84821118', 'detail': 1, 'uid': 'b388f9fd37bc4641b35c6ac6', 'detail_info': {'tag': '金融;银行', 'navi_location': {'lng': 113.37274624269, 'lat': 22.947434626817}, 'type': 'life', 'detail_url': 'http://api.map.baidu.com/place/detail?uid=b388f9fd37bc4641b35c6ac6&output=html&source=placeapi_v2', 'overall_rating': '2.7', 'image_num': '8', 'comment_num': '14', 'children': []}}
{'name': '中国工商银行(番禺兴泰支行)', 'location': {'lat': 22.938518, 'lng': 113.384625}, 'address': '广东省广州市番禺区兴泰路6号', 'province': '广东省', 'city': '广州市', 'area': '番禺区', 'street_id': 'bb0ffd66e47142a78605bfa3', 'telephone': '(020)84691132', 'detail': 1, 'uid': 'bb0ffd66e47142a78605bfa3', 'detail_info': {'tag': '金融;银行', 'navi_location': {'lng': 113.38456468954, 'lat': 22.938648083899}, 'type': 'life', 'detail_url': 'http://api.map.baidu.com/place/detail?uid=bb0ffd66e47142a78605bfa3&output=html&source=placeapi_v2', 'overall_rating': '4.0', 'image_num': '6', 'comment_num': '4', 'children': []}}
{'name': '中国农业银行(广州番禺福景支行)', 'location': {'lat': 22.923976, 'lng': 113.366428}, 'address': '广州市番禺区沙湾镇福景路1021~1027号;南城路386、388、390号', 'province': '广东省', 'city': '广州市', 'area': '番禺区', 'street_id': '57df45b744c5b5a8c26c145f', 'telephone': '(020)34624074,(020)31047822', 'detail': 1, 'uid': '57df45b744c5b5a8c26c145f', 'detail_info': {'tag': '金融;银行', 'navi_location': {'lng': 113.36647670893, 'lat': 22.924030731913}, 'type': 'life', 'detail_url': 'http://api.map.baidu.com/place/detail?uid=57df45b744c5b5a8c26c145f&output=html&source=placeapi_v2', 'overall_rating': '2.8', 'image_num': '9', 'comment_num': '6', 'children': []}}
{'name': '中国农业银行(广州番禺康裕园支行)', 'location': {'lat': 22.946329, 'lng': 113.358254}, 'address': '广东省广州市番禺区禺山大道230号', 'province': '广东省', 'city': '广州市', 'area': '番禺区', 'telephone': '(020)84898524', 'detail': 1, 'uid': '13bbbe34bb19d83eb8df8fa2', 'detail_info': {'tag': '金融;银行', 'navi_location': {'lng': 113.35828870541, 'lat': 22.946233534552}, 'type': 'life', 'detail_url': 'http://api.map.baidu.com/place/detail?uid=13bbbe34bb19d83eb8df8fa2&output=html&source=placeapi_v2', 'overall_rating': '1.0', 'image_num': '3', 'comment_num': '2', 'children': []}}
{'name': '中国农业银行(广州番禺番山支行)', 'location': {'lat': 22.948196, 'lng': 113.372609}, 'address': '广州市番禺区市桥大北路105号', 'province': '广东省', 'city': '广州市', 'area': '番禺区', 'street_id': '34059f97f71b995471455bc6', 'telephone': '(020)84898194', 'detail': 1, 'uid': '34059f97f71b995471455bc6', 'detail_info': {'tag': '金融;银行', 'navi_location': {'lng': 113.37268775312, 'lat': 22.94814365828}, 'type': 'life', 'detail_url': 'http://api.map.baidu.com/place/detail?uid=34059f97f71b995471455bc6&output=html&source=placeapi_v2', 'overall_rating': '2.9', 'image_num': '10', 'comment_num': '9', 'children': []}}
{'name': '中国工商银行(广州番禺德贤支行)', 'location': {'lat': 22.93113, 'lng': 113.362928}, 'address': '广州市番禺区桥南街德贤路53-57号', 'province': '广东省', 'city': '广州市', 'area': '番禺区', 'street_id': '7aea43b7c45768f87c29bdc7', 'telephone': '(020)84616602', 'detail': 1, 'uid': '7aea43b7c45768f87c29bdc7', 'detail_info': {'tag': '金融;银行', 'navi_location': {'lng': 113.36277669364, 'lat': 22.930986531531}, 'type': 'life', 'detail_url': 'http://api.map.baidu.com/place/detail?uid=7aea43b7c45768f87c29bdc7&output=html&source=placeapi_v2', 'overall_rating': '3.7', 'image_num': '11', 'comment_num': '5', 'children': []}}
{'name': '中国工商银行(市桥支行)', 'location': {'lat': 22.939535, 'lng': 113.372159}, 'address': '清河中路2-6号', 'province': '广东省', 'city': '广州市', 'area': '番禺区', 'street_id': '4eb3b533de94f275430245c6', 'telephone': '(020)84880499,(020)84822179,(020)84816398,(020)84884508', 'detail': 1, 'uid': '4eb3b533de94f275430245c6', 'detail_info': {'tag': '金融;银行', 'navi_location': {'lng': 113.37195376386, 'lat': 22.939533271923}, 'type': 'life', 'detail_url': 'http://api.map.baidu.com/place/detail?uid=4eb3b533de94f275430245c6&output=html&source=placeapi_v2', 'overall_rating': '2.4', 'image_num': '10', 'comment_num': '7', 'children': []}}
{'name': '中国银行(康乐路支行)', 'location': {'lat': 22.95126, 'lng': 113.360605}, 'address': '广东省广州市市桥镇康乐路162号1层', 'province': '广东省', 'city': '广州市', 'area': '番禺区', 'street_id': '5ffb181602ea515f6f4760c6', 'telephone': '(020)84809471', 'detail': 1, 'uid': '5ffb181602ea515f6f4760c6', 'detail_info': {'tag': '金融;银行', 'navi_location': {'lng': 113.36070261042, 'lat': 22.951397896982}, 'type': 'life', 'detail_url': 'http://api.map.baidu.com/place/detail?uid=5ffb181602ea515f6f4760c6&output=html&source=placeapi_v2', 'overall_rating': '2.8', 'image_num': '19', 'comment_num': '13', 'children': []}}
{'name': '中国建设银行(沙湾支行)', 'location': {'lat': 22.909522, 'lng': 113.349514}, 'address': '广东省广州市番禺区中华大道218-228号', 'province': '广东省', 'city': '广州市', 'area': '番禺区', 'street_id': '4344d11fcbea899a1576433d', 'telephone': '(020)84731646', 'detail': 1, 'uid': '083a55fa25d81979246e98d2', 'detail_info': {'tag': '金融;银行', 'navi_location': {'lng': 113.34941238877, 'lat': 22.909681840146}, 'type': 'life', 'detail_url': 'http://api.map.baidu.com/place/detail?uid=083a55fa25d81979246e98d2&output=html&source=placeapi_v2', 'overall_rating': '2.0', 'image_num': '10', 'comment_num': '12', 'children': []}}
{'name': '中信银行(广州桥南支行)', 'location': {'lat': 22.928791, 'lng': 113.382274}, 'address': '广州市番禺区桥南街南庭路401号5座103号', 'province': '广东省', 'city': '广州市', 'area': '番禺区', 'street_id': 'a11dc53886727b5c14b54b65', 'telephone': '(020)84620001', 'detail': 1, 'uid': 'a11dc53886727b5c14b54b65', 'detail_info': {'tag': '金融;银行', 'navi_location': {'lng': 113.38260974409, 'lat': 22.928486787667}, 'type': 'life', 'detail_url': 'http://api.map.baidu.com/place/detail?uid=a11dc53886727b5c14b54b65&output=html&source=placeapi_v2', 'overall_rating': '4.2', 'image_num': '7', 'comment_num': '5', 'children': []}}
{'name': '中国建设银行24小时自助银行(捷进中路店)', 'location': {'lat': 22.95718, 'lng': 113.370225}, 'address': '广东省广州市番禺区捷进中路13号', 'province': '广东省', 'city': '广州市', 'area': '番禺区', 'street_id': 'f49ae60ecdc7b55c16a19089', 'detail': 1, 'uid': 'f49ae60ecdc7b55c16a19089', 'detail_info': {'tag': '金融;atm', 'navi_location': {'lng': 113.37022592444, 'lat': 22.957038538382}, 'type': 'life', 'detail_url': 'http://api.map.baidu.com/place/detail?uid=f49ae60ecdc7b55c16a19089&output=html&source=placeapi_v2', 'overall_rating': '4.0', 'image_num': '4', 'comment_num': '1', 'children': []}}
{'name': '中国银行(广州番禺金海岸支行)', 'location': {'lat': 22.937504, 'lng': 113.412686}, 'address': '广州市番禺区石基镇金海岸花园金海岸大道71号', 'province': '广东省', 'city': '广州市', 'area': '番禺区', 'street_id': '28e700f1d91dcb01095cb3ff', 'telephone': '(020)34552401', 'detail': 1, 'uid': '28e700f1d91dcb01095cb3ff', 'detail_info': {'tag': '金融;银行', 'navi_location': {'lng': 113.41229310701, 'lat': 22.937515792236}, 'type': 'life', 'detail_url': 'http://api.map.baidu.com/place/detail?uid=28e700f1d91dcb01095cb3ff&output=html&source=placeapi_v2', 'overall_rating': '3.2', 'image_num': '5', 'comment_num': '5', 'children': []}}
{'name': '中国银行(清河东路支行)', 'location': {'lat': 22.941234, 'lng': 113.380357}, 'address': '广东省广州市番禺区清河东路48-52号', 'province': '广东省', 'city': '广州市', 'area': '番禺区', 'street_id': '89fd4ea3a62f9047e5e965c6', 'telephone': '(020)84615231', 'detail': 1, 'uid': '89fd4ea3a62f9047e5e965c6', 'detail_info': {'tag': '金融;银行', 'navi_location': {'lng': 113.38045886203, 'lat': 22.94129684533}, 'type': 'life', 'detail_url': 'http://api.map.baidu.com/place/detail?uid=89fd4ea3a62f9047e5e965c6&output=html&source=placeapi_v2', 'overall_rating': '3.7', 'image_num': '11', 'comment_num': '4', 'children': []}}
{'name': '中国农业银行(广州番禺华景支行)', 'location': {'lat': 22.931297, 'lng': 113.373374}, 'address': '广州市番禺区南华路42', 'province': '广东省', 'city': '广州市', 'area': '番禺区', 'street_id': '19bf1b6a803ccdff774ff1ac', 'telephone': '(020)84889864', 'detail': 1, 'uid': '19bf1b6a803ccdff774ff1ac', 'detail_info': {'tag': '金融;银行', 'navi_location': {'lng': 113.37336660349, 'lat': 22.931185241336}, 'type': 'life', 'detail_url': 'http://api.map.baidu.com/place/detail?uid=19bf1b6a803ccdff774ff1ac&output=html&source=placeapi_v2', 'overall_rating': '1.9', 'image_num': '10', 'comment_num': '8', 'children': []}}
{'name': '中国银行(广州番禺华景支行)', 'location': {'lat': 22.931469, 'lng': 113.370446}, 'address': '广州市番禺区市桥南郊华景新城海伦堡30号铺', 'province': '广东省', 'city': '广州市', 'area': '番禺区', 'street_id': '18165334ce3d5d04fb2d61c6', 'telephone': '(020)84812488', 'detail': 1, 'uid': '18165334ce3d5d04fb2d61c6', 'detail_info': {'tag': '金融;银行', 'navi_location': {'lng': 113.37030728933, 'lat': 22.93110526325}, 'type': 'life', 'detail_url': 'http://api.map.baidu.com/place/detail?uid=18165334ce3d5d04fb2d61c6&output=html&source=placeapi_v2', 'overall_rating': '1.8', 'image_num': '6', 'comment_num': '5', 'children': []}}
{'name': '中国建设银行(广州海伦堡创意园支行)', 'location': {'lat': 22.943686, 'lng': 113.348382}, 'address': '禺山西路329号海伦堡创意园', 'province': '广东省', 'city': '广州市', 'area': '番禺区', 'street_id': '1f818c9163199d25ad080f8a', 'telephone': '(020)84880010', 'detail': 1, 'uid': '1f818c9163199d25ad080f8a', 'detail_info': {'tag': '金融;银行', 'navi_location': {'lng': 113.34839527697, 'lat': 22.943853841759}, 'type': 'life', 'detail_url': 'http://api.map.baidu.com/place/detail?uid=1f818c9163199d25ad080f8a&output=html&source=placeapi_v2', 'overall_rating': '5.0', 'image_num': '5', 'comment_num': '2', 'children': []}}
{'name': '中国邮政储蓄银行(西丽营业所)', 'location': {'lat': 22.940432, 'lng': 113.360101}, 'address': '广州市番禺区解放路193', 'province': '广东省', 'city': '广州市', 'area': '番禺区', 'street_id': '7d7965d8d6d5e9698b2fb5e5', 'telephone': '(020)84602536', 'detail': 1, 'uid': '7d7965d8d6d5e9698b2fb5e5', 'detail_info': {'tag': '金融;银行', 'navi_location': {'lng': 113.36007199276, 'lat': 22.940506262183}, 'type': 'life', 'detail_url': 'http://api.map.baidu.com/place/detail?uid=7d7965d8d6d5e9698b2fb5e5&output=html&source=placeapi_v2', 'overall_rating': '4.0', 'image_num': '9', 'comment_num': '4', 'children': []}}
{'name': '中国农业银行', 'location': {'lat': 22.945557, 'lng': 113.361969}, 'address': '广东省广州市番禺区北桥路56号附近', 'province': '广东省', 'city': '广州市', 'area': '番禺区', 'detail': 1, 'uid': '5ba904fa2d0cabd702294f3a', 'detail_info': {'tag': '金融;银行', 'navi_location': {'lng': 113.36188663188, 'lat': 22.945422331935}, 'type': 'life', 'detail_url': 'http://api.map.baidu.com/place/detail?uid=5ba904fa2d0cabd702294f3a&output=html&source=placeapi_v2', 'overall_rating': '3.0', 'image_num': '2', 'comment_num': '1', 'children': []}}
{'name': '中国邮政储蓄银行(繁华路营业所)', 'location': {'lat': 22.948084, 'lng': 113.370398}, 'address': '广东省广州市番禺区繁华路36号', 'province': '广东省', 'city': '广州市', 'area': '番禺区', 'street_id': '56e88cba086f8665a4c756c1', 'telephone': '(020)84803222', 'detail': 1, 'uid': '56e88cba086f8665a4c756c1', 'detail_info': {'tag': '金融;银行', 'navi_location': {'lng': 113.37024261493, 'lat': 22.94799508835}, 'type': 'life', 'detail_url': 'http://api.map.baidu.com/place/detail?uid=56e88cba086f8665a4c756c1&output=html&source=placeapi_v2', 'overall_rating': '3.2', 'image_num': '10', 'comment_num': '5', 'children': []}}
{'name': '中国银行(广州番禺西丽路支行)', 'location': {'lat': 22.943067, 'lng': 113.360292}, 'address': '番禺市桥镇西丽南路88号', 'province': '广东省', 'city': '广州市', 'area': '番禺区', 'street_id': 'e23b799313e481469d82ea3a', 'telephone': '(020)84609377', 'detail': 1, 'uid': 'e23b799313e481469d82ea3a', 'detail_info': {'tag': '金融;银行', 'type': 'life', 'detail_url': 'http://api.map.baidu.com/place/detail?uid=e23b799313e481469d82ea3a&output=html&source=placeapi_v2', 'overall_rating': '4.0', 'image_num': '4', 'comment_num': '5', 'children': []}}
{'name': '中国建设银行', 'location': {'lat': 22.954174, 'lng': 113.347805}, 'address': '广东省广州市番禺区沙南路88号附近', 'province': '广东省', 'city': '广州市', 'area': '番禺区', 'detail': 1, 'uid': '083cb4788b4ccd1ec6effb93', 'detail_info': {'tag': '金融;银行', 'type': 'life', 'detail_url': 'http://api.map.baidu.com/place/detail?uid=083cb4788b4ccd1ec6effb93&output=html&source=placeapi_v2', 'overall_rating': '0.0', 'image_num': '1', 'comment_num': '1', 'children': []}}
{'name': '中国工商银行(番禺沙湾支行)', 'location': {'lat': 22.912767, 'lng': 113.35454}, 'address': '广州市番禺区沙湾镇青云大道83号', 'province': '广东省', 'city': '广州市', 'area': '番禺区', 'street_id': '2c0bd6c5de422eaa43ab9ad2', 'telephone': '(020)84735928', 'detail': 1, 'uid': '2c0bd6c5de422eaa43ab9ad2', 'detail_info': {'tag': '金融;银行', 'navi_location': {'lng': 113.35465941551, 'lat': 22.912853689092}, 'type': 'life', 'detail_url': 'http://api.map.baidu.com/place/detail?uid=2c0bd6c5de422eaa43ab9ad2&output=html&source=placeapi_v2', 'overall_rating': '3.2', 'image_num': '11', 'comment_num': '7', 'children': []}}
{'name': '中国银行(广州番禺沙湾支行)', 'location': {'lat': 22.911609, 'lng': 113.351177}, 'address': '广东省广州市番禺区沙湾大道9号', 'province': '广东省', 'city': '广州市', 'area': '番禺区', 'street_id': 'db1f39d43251a16ff5c59cd2', 'telephone': '(020)84739727', 'detail': 1, 'uid': 'db1f39d43251a16ff5c59cd2', 'detail_info': {'tag': '金融;银行', 'navi_location': {'lng': 113.35128953557, 'lat': 22.911716730711}, 'type': 'life', 'detail_url': 'http://api.map.baidu.com/place/detail?uid=db1f39d43251a16ff5c59cd2&output=html&source=placeapi_v2', 'overall_rating': '5.0', 'image_num': '14', 'comment_num': '4', 'children': []}}
{'name': '中国银行(广州番禺富豪山庄支行)', 'location': {'lat': 22.972185, 'lng': 113.354295}, 'address': '广州市番禺区东环街市广路232号富豪山庄1号商业楼20至25号', 'province': '广东省', 'city': '广州市', 'area': '番禺区', 'street_id': 'f9fd60622967cb620f0e6b01', 'telephone': '(020)84861435', 'detail': 1, 'uid': 'f9fd60622967cb620f0e6b01', 'detail_info': {'tag': '金融;银行', 'navi_location': {'lng': 113.35425188664, 'lat': 22.972128448781}, 'type': 'life', 'detail_url': 'http://api.map.baidu.com/place/detail?uid=f9fd60622967cb620f0e6b01&output=html&source=placeapi_v2', 'overall_rating': '0.0', 'image_num': '3', 'comment_num': '2', 'children': []}}
{'name': '中国工商银行(广州番禺西丽支行)', 'location': {'lat': 22.941839, 'lng': 113.36047}, 'address': '广州市番禺区市桥镇西丽南路118号', 'province': '广东省', 'city': '广州市', 'area': '番禺区', 'street_id': 'ffd6d403786d7a8f17b54bc6', 'telephone': '(020)84607729', 'detail': 1, 'uid': 'ffd6d403786d7a8f17b54bc6', 'detail_info': {'tag': '金融;银行', 'navi_location': {'lng': 113.36061672882, 'lat': 22.941969878487}, 'type': 'life', 'detail_url': 'http://api.map.baidu.com/place/detail?uid=ffd6d403786d7a8f17b54bc6&output=html&source=placeapi_v2', 'overall_rating': '3.5', 'image_num': '7', 'comment_num': '8', 'children': []}}
{'name': '中国邮政储蓄银行(番禺支行)', 'location': {'lat': 22.926664, 'lng': 113.367478}, 'address': '广东省广州市番禺区南城路273号', 'province': '广东省', 'city': '广州市', 'area': '番禺区', 'street_id': '75d0881ae16026333a04b114', 'telephone': '(020)39255882', 'detail': 1, 'uid': '75d0881ae16026333a04b114', 'detail_info': {'tag': '金融;银行', 'navi_location': {'lng': 113.36736412428, 'lat': 22.926688421093}, 'type': 'life', 'detail_url': 'http://api.map.baidu.com/place/detail?uid=75d0881ae16026333a04b114&output=html&source=placeapi_v2', 'overall_rating': '4.2', 'image_num': '8', 'comment_num': '7', 'children': []}}
{'name': '中国工商银行(广州番禺康乐支行)', 'location': {'lat': 22.950686, 'lng': 113.360211}, 'address': '广州市番禺区市桥镇康乐路162号', 'province': '广东省', 'city': '广州市', 'area': '番禺区', 'street_id': 'b292b3aa6c83b556be4842c6', 'telephone': '(020)84807974', 'detail': 1, 'uid': 'b292b3aa6c83b556be4842c6', 'detail_info': {'tag': '金融;银行', 'navi_location': {'lng': 113.36020491054, 'lat': 22.95055780158}, 'type': 'life', 'detail_url': 'http://api.map.baidu.com/place/detail?uid=b292b3aa6c83b556be4842c6&output=html&source=placeapi_v2', 'overall_rating': '0.0', 'image_num': '9', 'comment_num': '3', 'children': []}}
{'name': '中国邮政储蓄银行(广州东城支行)', 'location': {'lat': 22.941538, 'lng': 113.384991}, 'address': '番禺区镇清河东路198号', 'province': '广东省', 'city': '广州市', 'area': '番禺区', 'street_id': '81d6a509531cc7406e20b9ff', 'telephone': '(020)84626660', 'detail': 1, 'uid': '81d6a509531cc7406e20b9ff', 'detail_info': {'tag': '金融;银行', 'navi_location': {'lng': 113.38503688383, 'lat': 22.941873888164}, 'type': 'life', 'detail_url': 'http://api.map.baidu.com/place/detail?uid=81d6a509531cc7406e20b9ff&output=html&source=placeapi_v2', 'overall_rating': '3.2', 'image_num': '8', 'comment_num': '5', 'children': []}}
{'name': '东莞银行(广州番禺支行)', 'location': {'lat': 22.941724, 'lng': 113.400065}, 'address': '石碁镇广华南路71号', 'province': '广东省', 'city': '广州市', 'area': '番禺区', 'street_id': 'ce71649d0c34fcc3a8f729da', 'telephone': '(020)39258785', 'detail': 1, 'uid': 'ce71649d0c34fcc3a8f729da', 'detail_info': {'tag': '金融;银行', 'navi_location': {'lng': 113.39984724587, 'lat': 22.941669331724}, 'type': 'life', 'detail_url': 'http://api.map.baidu.com/place/detail?uid=ce71649d0c34fcc3a8f729da&output=html&source=placeapi_v2', 'overall_rating': '2.6', 'image_num': '5', 'comment_num': '6', 'children': []}}
{'name': '中国建设银行(广州番禺海伦堡支行)', 'location': {'lat': 22.931274, 'lng': 113.36996}, 'address': '广州市番禺区桥南街南华路130号', 'province': '广东省', 'city': '广州市', 'area': '番禺区', 'street_id': '22e1140756302cb4d5b74ec6', 'telephone': '(020)84824455', 'detail': 1, 'uid': '22e1140756302cb4d5b74ec6', 'detail_info': {'tag': '金融;银行', 'navi_location': {'lng': 113.36991960044, 'lat': 22.931086721439}, 'type': 'life', 'detail_url': 'http://api.map.baidu.com/place/detail?uid=22e1140756302cb4d5b74ec6&output=html&source=placeapi_v2', 'overall_rating': '1.0', 'image_num': '7', 'comment_num': '4', 'children': []}}
{'name': '中国邮政储蓄银行(番禺石基石岗营业所)', 'location': {'lat': 22.943567, 'lng': 113.407769}, 'address': '广东省广州市番禺区石基镇石岗北路89号', 'province': '广东省', 'city': '广州市', 'area': '番禺区', 'street_id': '841272259088f049e011035c', 'telephone': '(020)34612623', 'detail': 1, 'uid': '841272259088f049e011035c', 'detail_info': {'tag': '金融;银行', 'navi_location': {'lng': 113.40751673846, 'lat': 22.943510680206}, 'type': 'life', 'detail_url': 'http://api.map.baidu.com/place/detail?uid=841272259088f049e011035c&output=html&source=placeapi_v2', 'overall_rating': '2.8', 'image_num': '12', 'comment_num': '8', 'children': []}}
{'name': '中国农业银行(广州富豪山庄支行)', 'location': {'lat': 22.971787, 'lng': 113.354614}, 'address': '广州市番禺区市广路232号富豪山庄商业楼2-15号,16号,17号,18号,19号铺首层', 'province': '广东省', 'city': '广州市', 'area': '番禺区', 'street_id': 'a85161be531a1800bda2404d', 'telephone': '(020)84783501', 'detail': 1, 'uid': 'a85161be531a1800bda2404d', 'detail_info': {'tag': '金融;银行', 'navi_location': {'lng': 113.35459302534, 'lat': 22.971701141758}, 'type': 'life', 'detail_url': 'http://api.map.baidu.com/place/detail?uid=a85161be531a1800bda2404d&output=html&source=placeapi_v2', 'image_num': '6', 'children': []}}
{'name': '中国邮政储蓄银行(沙头支行)', 'location': {'lat': 22.959416, 'lng': 113.364882}, 'address': '番禺区桥兴大道228号101房', 'province': '广东省', 'city': '广州市', 'area': '番禺区', 'street_id': '83cb4a4698aa6efa45e274dc', 'telephone': '(020)84877666,(020)84878881', 'detail': 1, 'uid': '83cb4a4698aa6efa45e274dc', 'detail_info': {'tag': '金融;银行', 'navi_location': {'lng': 113.36476313188, 'lat': 22.95941396575}, 'type': 'life', 'detail_url': 'http://api.map.baidu.com/place/detail?uid=83cb4a4698aa6efa45e274dc&output=html&source=placeapi_v2', 'overall_rating': '0.0', 'image_num': '20', 'comment_num': '2', 'children': []}}
{'name': '中国邮政储蓄银行(番禺南郊营业所)', 'location': {'lat': 22.927223, 'lng': 113.375181}, 'address': '广州市番禺区桥南街桥南路215、217、219号商铺', 'province': '广东省', 'city': '广州市', 'area': '番禺区', 'street_id': 'ae47d8cb5b73d94b63180908', 'telephone': '(020)34615039', 'detail': 1, 'uid': 'ae47d8cb5b73d94b63180908', 'detail_info': {'tag': '金融;银行', 'navi_location': {'lng': 113.37512327226, 'lat': 22.92724066284}, 'type': 'life', 'detail_url': 'http://api.map.baidu.com/place/detail?uid=ae47d8cb5b73d94b63180908&output=html&source=placeapi_v2', 'overall_rating': '5.0', 'image_num': '15', 'comment_num': '2', 'children': []}}
{'name': '中国农业银行(广州番禺沙湾支行)', 'location': {'lat': 22.906845, 'lng': 113.344439}, 'address': '广州市番禺区沙湾镇中华大道翠园西一街21座1,2层', 'province': '广东省', 'city': '广州市', 'area': '番禺区', 'street_id': '3f826ed303e99a46d1f49ed2', 'telephone': '(020)84731649', 'detail': 1, 'uid': '3f826ed303e99a46d1f49ed2', 'detail_info': {'tag': '金融;银行', 'navi_location': {'lng': 113.34453311124, 'lat': 22.906746834874}, 'type': 'life', 'detail_url': 'http://api.map.baidu.com/place/detail?uid=3f826ed303e99a46d1f49ed2&output=html&source=placeapi_v2', 'overall_rating': '3.0', 'image_num': '4', 'children': []}}
{'name': '广发银行24小时自助银行(番禺支行)', 'location': {'lat': 22.945911, 'lng': 113.372372}, 'address': '广州市番禺区大北路83号', 'province': '广东省', 'city': '广州市', 'area': '番禺区', 'street_id': 'fd13a3f272301afab1077dc6', 'detail': 1, 'uid': 'fd13a3f272301afab1077dc6', 'detail_info': {'tag': '金融;atm', 'navi_location': {'lng': 113.37254923351, 'lat': 22.945956048504}, 'type': 'life', 'detail_url': 'http://api.map.baidu.com/place/detail?uid=fd13a3f272301afab1077dc6&output=html&source=placeapi_v2', 'overall_rating': '4.0', 'image_num': '9', 'comment_num': '6', 'children': []}}
{'name': '中信银行24小时自助银行(番禺支行)', 'location': {'lat': 22.941587, 'lng': 113.395647}, 'address': '广东省广州市番禺区石基镇清河东路罗家村段4号', 'province': '广东省', 'city': '广州市', 'area': '番禺区', 'street_id': '27cc4178bf5e41b046572688', 'detail': 1, 'uid': 'b9e5d0b809d932bc81a12efe', 'detail_info': {'tag': '金融;atm', 'navi_location': {'lng': 113.39576001958, 'lat': 22.941503346719}, 'type': 'life', 'detail_url': 'http://api.map.baidu.com/place/detail?uid=b9e5d0b809d932bc81a12efe&output=html&source=placeapi_v2', 'overall_rating': '5.0', 'image_num': '7', 'comment_num': '1', 'children': []}}
{'name': '汇丰银行(广州番禺支行)', 'location': {'lat': 22.94097, 'lng': 113.38866}, 'address': '清河东路288号', 'province': '广东省', 'city': '广州市', 'area': '番禺区', 'street_id': '6648101a901989622bb97c2c', 'telephone': '4008203090', 'detail': 1, 'uid': '6648101a901989622bb97c2c', 'detail_info': {'tag': '金融;银行', 'navi_location': {'lng': 113.38849618289, 'lat': 22.941613548845}, 'type': 'life', 'detail_url': 'http://api.map.baidu.com/place/detail?uid=6648101a901989622bb97c2c&output=html&source=placeapi_v2', 'overall_rating': '2.0', 'image_num': '5', 'comment_num': '3', 'children': []}}
{'name': '中国邮政储蓄银行(石基大龙支行)', 'location': {'lat': 22.942708, 'lng': 113.403353}, 'address': '市番禺区亚运大道以纯东侧20米', 'province': '广东省', 'city': '广州市', 'area': '番禺区', 'street_id': 'f3113b20cca83a4325e0a040', 'telephone': '(020)34608311', 'detail': 1, 'uid': 'f3113b20cca83a4325e0a040', 'detail_info': {'tag': '金融;银行', 'navi_location': {'lng': 113.4033008883, 'lat': 22.942629579861}, 'type': 'life', 'detail_url': 'http://api.map.baidu.com/place/detail?uid=f3113b20cca83a4325e0a040&output=html&source=placeapi_v2', 'overall_rating': '1.0', 'image_num': '7', 'comment_num': '2', 'children': []}}
{'name': '中国光大银行24小时自助银行(广州番禺支行)', 'location': {'lat': 22.952472, 'lng': 113.368836}, 'address': '广州市富华西路45', 'province': '广东省', 'city': '广州市', 'area': '番禺区', 'street_id': '94f2e21401f07ff260180903', 'detail': 1, 'uid': '6ee01020b2d191ef52e5c5c6', 'detail_info': {'tag': '金融;atm', 'navi_location': {'lng': 113.3688254284, 'lat': 22.952800152012}, 'type': 'life', 'detail_url': 'http://api.map.baidu.com/place/detail?uid=6ee01020b2d191ef52e5c5c6&output=html&source=placeapi_v2', 'overall_rating': '4.5', 'image_num': '18', 'comment_num': '10', 'children': []}}
{'name': '广州番禺新华村镇银行(市桥支行)', 'location': {'lat': 22.944083, 'lng': 113.400872}, 'address': '广东省广州市番禺区大龙街市莲路石岗西村58号', 'province': '广东省', 'city': '广州市', 'area': '番禺区', 'street_id': 'e896aa2c5477d5e0aeb22add', 'telephone': '(020)23881678', 'detail': 1, 'uid': 'e896aa2c5477d5e0aeb22add', 'detail_info': {'tag': '金融;银行', 'navi_location': {'lng': 113.40060153773, 'lat': 22.94414307043}, 'type': 'life', 'detail_url': 'http://api.map.baidu.com/place/detail?uid=e896aa2c5477d5e0aeb22add&output=html&source=placeapi_v2', 'overall_rating': '3.0', 'image_num': '5', 'comment_num': '3', 'children': []}}
{'name': '浙商银行(广州番禺支行)', 'location': {'lat': 22.941192, 'lng': 113.396153}, 'address': '广州市番禺区亚运大道与东怡区一街横街交叉路口东南侧(和业投资大厦)', 'province': '广东省', 'city': '广州市', 'area': '番禺区', 'street_id': '37603e2ac36d2c6441d63e51', 'telephone': '(020)22931202,(020)22931205', 'detail': 1, 'uid': '37603e2ac36d2c6441d63e51', 'detail_info': {'tag': '金融;银行', 'navi_location': {'lng': 113.39644517785, 'lat': 22.941839300956}, 'type': 'life', 'detail_url': 'http://api.map.baidu.com/place/detail?uid=37603e2ac36d2c6441d63e51&output=html&source=placeapi_v2', 'image_num': '1', 'children': []}}
{'name': '中国邮政储蓄银行(沙湾邮局营业部)', 'location': {'lat': 22.907792, 'lng': 113.343297}, 'address': '大巷涌路30号', 'province': '广东省', 'city': '广州市', 'area': '番禺区', 'street_id': '91e7bf906157324acafa5f54', 'telephone': '(020)84736236', 'detail': 1, 'uid': '91e7bf906157324acafa5f54', 'detail_info': {'tag': '金融;银行', 'navi_location': {'lng': 113.34352050444, 'lat': 22.907861690441}, 'type': 'life', 'detail_url': 'http://api.map.baidu.com/place/detail?uid=91e7bf906157324acafa5f54&output=html&source=placeapi_v2', 'overall_rating': '3.0', 'image_num': '17', 'comment_num': '4', 'children': []}}
{'name': '招商银行24小时自助银行(番禺支行)', 'location': {'lat': 22.946214, 'lng': 113.371797}, 'address': '广州市番禺区禺山大道16号', 'province': '广东省', 'city': '广州市', 'area': '番禺区', 'street_id': 'c61bd305d4c0f668c27da2c6', 'detail': 1, 'uid': 'c61bd305d4c0f668c27da2c6', 'detail_info': {'tag': '金融;atm', 'navi_location': {'lng': 113.37176075124, 'lat': 22.946139730801}, 'type': 'life', 'detail_url': 'http://api.map.baidu.com/place/detail?uid=c61bd305d4c0f668c27da2c6&output=html&source=placeapi_v2', 'overall_rating': '1.0', 'image_num': '10', 'comment_num': '3', 'children': []}}
{'name': '中国农业银行24小时自助银行(广州番禺福景支行)', 'location': {'lat': 22.923967, 'lng': 113.366405}, 'address': '沙湾镇福景路1021～1027号', 'province': '广东省', 'city': '广州市', 'area': '番禺区', 'street_id': '2c0e8095a156ae1b7069d3a3', 'detail': 1, 'uid': '2c0e8095a156ae1b7069d3a3', 'detail_info': {'tag': '金融;atm', 'navi_location': {'lng': 113.36650359342, 'lat': 22.924000141285}, 'type': 'life', 'detail_url': 'http://api.map.baidu.com/place/detail?uid=2c0e8095a156ae1b7069d3a3&output=html&source=placeapi_v2', 'overall_rating': '4.0', 'image_num': '9', 'comment_num': '3', 'children': []}}
{'name': '南粤银行(广州番禺分行)', 'location': {'lat': 22.945689, 'lng': 113.367344}, 'address': '市桥街光明南路199号22栋4～6号首/2层', 'province': '广东省', 'city': '广州市', 'area': '番禺区', 'street_id': 'f956dcdfeff40a279a68b4b0', 'telephone': '(020)22939906', 'detail': 1, 'uid': 'f956dcdfeff40a279a68b4b0', 'detail_info': {'tag': '金融;银行', 'navi_location': {'lng': 113.36746263067, 'lat': 22.946113713097}, 'type': 'life', 'detail_url': 'http://api.map.baidu.com/place/detail?uid=f956dcdfeff40a279a68b4b0&output=html&source=placeapi_v2', 'overall_rating': '0.0', 'image_num': '5', 'comment_num': '2', 'children': []}}
{'name': '中国建设银行24小时自助银行(东怡支行)', 'location': {'lat': 22.941545, 'lng': 113.399304}, 'address': '广东省广州市番禺区清河东路石岗西村段24', 'province': '广东省', 'city': '广州市', 'area': '番禺区', 'street_id': '0058610837f71da546e274fe', 'detail': 1, 'uid': '0058610837f71da546e274fe', 'detail_info': {'tag': '金融;atm', 'navi_location': {'lng': 113.39940792956, 'lat': 22.941668177362}, 'type': 'life', 'detail_url': 'http://api.map.baidu.com/place/detail?uid=0058610837f71da546e274fe&output=html&source=placeapi_v2', 'overall_rating': '5.0', 'image_num': '6', 'comment_num': '2', 'children': []}}
{'name': '中国建设银行', 'location': {'lat': 22.9172, 'lng': 113.360448}, 'address': '广东省广州市番禺区中华大道627附近', 'province': '广东省', 'city': '广州市', 'area': '番禺区', 'street_id': '30e37c0453637bf807fef5f6', 'detail': 1, 'uid': '30e37c0453637bf807fef5f6', 'detail_info': {'tag': '金融;银行', 'navi_location': {'lng': 113.36044058728, 'lat': 22.917386111485}, 'type': 'life', 'detail_url': 'http://api.map.baidu.com/place/detail?uid=30e37c0453637bf807fef5f6&output=html&source=placeapi_v2', 'overall_rating': '0.0', 'image_num': '2', 'comment_num': '0', 'children': []}}
{'name': '中国邮政储蓄银行24小时自助银行(东城营业所)', 'location': {'lat': 22.941522, 'lng': 113.385117}, 'address': '广州市番禺区清河东路198号', 'province': '广东省', 'city': '广州市', 'area': '番禺区', 'street_id': 'ac142196c17dc7d1f942b268', 'detail': 1, 'uid': 'ac142196c17dc7d1f942b268', 'detail_info': {'tag': '金融;atm', 'navi_location': {'lng': 113.38506465584, 'lat': 22.941913080322}, 'type': 'life', 'detail_url': 'http://api.map.baidu.com/place/detail?uid=ac142196c17dc7d1f942b268&output=html&source=placeapi_v2', 'overall_rating': '2.0', 'image_num': '7', 'comment_num': '3', 'children': []}}
{'name': '中国农业银行24小时自助银行(广州番禺平康支行)', 'location': {'lat': 22.946889, 'lng': 113.387391}, 'address': '平康路322号1层', 'province': '广东省', 'city': '广州市', 'area': '番禺区', 'street_id': '4bb049d9b3bb76399900501b', 'detail': 1, 'uid': '4bb049d9b3bb76399900501b', 'detail_info': {'tag': '金融;atm', 'navi_location': {'lng': 113.38736808726, 'lat': 22.946695072984}, 'type': 'life', 'detail_url': 'http://api.map.baidu.com/place/detail?uid=4bb049d9b3bb76399900501b&output=html&source=placeapi_v2', 'overall_rating': '5.0', 'image_num': '8', 'comment_num': '3', 'children': []}}
{'name': '中国银行24小时自助银行(广州市番禺中心医院)', 'location': {'lat': 22.917786, 'lng': 113.382097}, 'address': '广东省广州市番禺区福愉东路8', 'province': '广东省', 'city': '广州市', 'area': '番禺区', 'street_id': '8961517aa805f4095abbbca2', 'detail': 1, 'uid': '8961517aa805f4095abbbca2', 'detail_info': {'tag': '金融;atm', 'type': 'life', 'detail_url': 'http://api.map.baidu.com/place/detail?uid=8961517aa805f4095abbbca2&output=html&source=placeapi_v2', 'overall_rating': '2.5', 'image_num': '1', 'comment_num': '2', 'children': []}}
{'name': '中国建设银行24小时自助银行(光明北路店)', 'location': {'lat': 22.951195, 'lng': 113.368343}, 'address': '广东省广州市番禺区光明北路130号', 'province': '广东省', 'city': '广州市', 'area': '番禺区', 'street_id': '87ac91ad1468a63c4154d75d', 'detail': 1, 'uid': '87ac91ad1468a63c4154d75d', 'detail_info': {'tag': '金融;atm', 'navi_location': {'lng': 113.36816327662, 'lat': 22.951178297468}, 'type': 'life', 'detail_url': 'http://api.map.baidu.com/place/detail?uid=87ac91ad1468a63c4154d75d&output=html&source=placeapi_v2', 'overall_rating': '0.0', 'image_num': '8', 'comment_num': '1', 'children': []}}
{'name': '中国建设银行24小时自助银行(番禺支行营业部)', 'location': {'lat': 22.947565, 'lng': 113.370281}, 'address': '繁华路41', 'province': '广东省', 'city': '广州市', 'area': '番禺区', 'street_id': 'bbe298ed1050ce36ae31e595', 'detail': 1, 'uid': 'bbe298ed1050ce36ae31e595', 'detail_info': {'tag': '金融;atm', 'navi_location': {'lng': 113.3703328605, 'lat': 22.947838033497}, 'type': 'life', 'detail_url': 'http://api.map.baidu.com/place/detail?uid=bbe298ed1050ce36ae31e595&output=html&source=placeapi_v2', 'overall_rating': '0.0', 'image_num': '5', 'comment_num': '1', 'children': []}}
{'name': '中国农业银行24小时自助银行', 'location': {'lat': 22.949917, 'lng': 113.411807}, 'address': '广东省广州市番禺区市莲路傍江西村段18', 'province': '广东省', 'city': '广州市', 'area': '番禺区', 'street_id': '230ef5bafaf41408b21e3630', 'detail': 1, 'uid': '19bbb372ea40f30ec42ba102', 'detail_info': {'tag': '金融;atm', 'navi_location': {'lng': 113.41181636704, 'lat': 22.949897636552}, 'type': 'life', 'detail_url': 'http://api.map.baidu.com/place/detail?uid=19bbb372ea40f30ec42ba102&output=html&source=placeapi_v2', 'overall_rating': '0.0', 'image_num': '4', 'comment_num': '1', 'children': []}}
{'name': '兴业银行24小时自助银行(番禺支行)', 'location': {'lat': 22.950794, 'lng': 113.360462}, 'address': '市桥街康乐路162号首层', 'province': '广东省', 'city': '广州市', 'area': '番禺区', 'street_id': 'fd007c5eaa9da111a8f72905', 'detail': 1, 'uid': 'fd007c5eaa9da111a8f72905', 'detail_info': {'tag': '金融;atm', 'navi_location': {'lng': 113.36067381613, 'lat': 22.950675363484}, 'type': 'life', 'detail_url': 'http://api.map.baidu.com/place/detail?uid=fd007c5eaa9da111a8f72905&output=html&source=placeapi_v2', 'overall_rating': '0.0', 'image_num': '6', 'comment_num': '1', 'children': []}}
{'name': '广州市农村商业银行(捷进支行)', 'location': {'lat': 22.955538, 'lng': 113.364783}, 'address': '捷进中路39号', 'province': '广东省', 'city': '广州市', 'area': '番禺区', 'street_id': '1cea15a9b59ceebb07fef513', 'telephone': '(020)39992526,(020)39992629', 'detail': 1, 'uid': '1cea15a9b59ceebb07fef513', 'detail_info': {'tag': '金融;银行', 'navi_location': {'lng': 113.36467051748, 'lat': 22.955679201556}, 'type': 'life', 'detail_url': 'http://api.map.baidu.com/place/detail?uid=1cea15a9b59ceebb07fef513&output=html&source=placeapi_v2', 'overall_rating': '4.0', 'image_num': '10', 'comment_num': '1', 'children': []}}
{'name': '招商银行24小时自助银行(广州奥园广场支行)', 'location': {'lat': 22.930344, 'lng': 113.365261}, 'address': '广州市番禺区福德路317号奥园广场F1', 'province': '广东省', 'city': '广州市', 'area': '番禺区', 'street_id': 'a7e1b8bde4d49f554054d7d4', 'detail': 1, 'uid': 'eb4d134f9c6dbf866c3e1b9b', 'detail_info': {'tag': '金融;atm', 'navi_location': {'lng': 113.36523427156, 'lat': 22.930622186726}, 'indoor_floor': 'F1', 'type': 'life', 'detail_url': 'http://api.map.baidu.com/place/detail?uid=eb4d134f9c6dbf866c3e1b9b&output=html&source=placeapi_v2', 'overall_rating': '0.0', 'image_num': '6', 'comment_num': '1', 'children': []}}
{'name': '中国建设银行24小时自助银行(兴华三路)', 'location': {'lat': 22.944334, 'lng': 113.401351}, 'address': '广东省广州市番禺区市莲路石岗西村段98', 'province': '广东省', 'city': '广州市', 'area': '番禺区', 'street_id': 'a0e5476474b30a8c81288a6d', 'detail': 1, 'uid': 'a0e5476474b30a8c81288a6d', 'detail_info': {'tag': '金融;atm', 'type': 'life', 'detail_url': 'http://api.map.baidu.com/place/detail?uid=a0e5476474b30a8c81288a6d&output=html&source=placeapi_v2', 'image_num': '4', 'children': []}}
{'name': '广州市农村商业银行(市桥光明支行)', 'location': {'lat': 22.949313, 'lng': 113.368122}, 'address': '广州市番禺区市桥镇光明北路70号', 'province': '广东省', 'city': '广州市', 'area': '番禺区', 'street_id': '4bb049d9b3b876399900501e', 'telephone': '(020)84872369', 'detail': 1, 'uid': '4bb049d9b3b876399900501e', 'detail_info': {'tag': '金融;信用社', 'navi_location': {'lng': 113.3680575802, 'lat': 22.949392902808}, 'type': 'life', 'detail_url': 'http://api.map.baidu.com/place/detail?uid=4bb049d9b3b876399900501e&output=html&source=placeapi_v2', 'overall_rating': '4.0', 'image_num': '7', 'comment_num': '2', 'children': []}}
{'name': '中国建设银行24小时自助银行(永旺梦乐城)', 'location': {'lat': 22.943583, 'lng': 113.394386}, 'address': '广州市番禺区亚运大道1号永旺梦乐城广州番禺广场F1', 'province': '广东省', 'city': '广州市', 'area': '番禺区', 'street_id': 'b1e45d9892ca98e4d8eced26', 'detail': 1, 'uid': 'b1e45d9892ca98e4d8eced26', 'detail_info': {'tag': '金融;atm', 'indoor_floor': 'F1', 'type': 'life', 'detail_url': 'http://api.map.baidu.com/place/detail?uid=b1e45d9892ca98e4d8eced26&output=html&source=placeapi_v2', 'image_num': '1', 'children': []}}
{'name': '广发银行24小时自助银行服务(平康路支行)', 'location': {'lat': 22.946422, 'lng': 113.384831}, 'address': '市桥平康路183号金城大厦首层', 'province': '广东省', 'city': '广州市', 'area': '番禺区', 'street_id': '87248d9629829ab32806cec6', 'detail': 1, 'uid': '87248d9629829ab32806cec6', 'detail_info': {'tag': '金融;atm', 'navi_location': {'lng': 113.38458186521, 'lat': 22.946513336899}, 'type': 'life', 'detail_url': 'http://api.map.baidu.com/place/detail?uid=87248d9629829ab32806cec6&output=html&source=placeapi_v2', 'overall_rating': '0.0', 'image_num': '7', 'comment_num': '1', 'children': []}}
{'name': '中国建设24小时自助银行', 'location': {'lat': 22.941973, 'lng': 113.378479}, 'address': '广东省广州市番禺区万丰路126号附近', 'province': '广东省', 'city': '广州市', 'area': '番禺区', 'detail': 1, 'uid': '770cf691d00feb63c92915a0', 'detail_info': {'tag': '金融;atm', 'type': 'life', 'detail_url': 'http://api.map.baidu.com/place/detail?uid=770cf691d00feb63c92915a0&output=html&source=placeapi_v2', 'image_num': '1', 'children': []}}
{'name': '中国银行24小时自助银行(广州番禺北城支行)', 'location': {'lat': 22.960381, 'lng': 113.36832}, 'address': '光明北路383-389', 'province': '广东省', 'city': '广州市', 'area': '番禺区', 'street_id': '0324378493bc7518bda82283', 'detail': 1, 'uid': '0324378493bc7518bda82283', 'detail_info': {'tag': '金融;atm', 'navi_location': {'lng': 113.36837699967, 'lat': 22.960334008033}, 'type': 'life', 'detail_url': 'http://api.map.baidu.com/place/detail?uid=0324378493bc7518bda82283&output=html&source=placeapi_v2', 'overall_rating': '0.0', 'image_num': '7', 'children': []}}
{'name': '中国银行24小时自助银行(广州番禺支行)', 'location': {'lat': 22.940959, 'lng': 113.391924}, 'address': '清河东路338号', 'province': '广东省', 'city': '广州市', 'area': '番禺区', 'street_id': '48f3778aed736efa15a19064', 'detail': 1, 'uid': '48f3778aed736efa15a19064', 'detail_info': {'tag': '金融;atm', 'type': 'life', 'detail_url': 'http://api.map.baidu.com/place/detail?uid=48f3778aed736efa15a19064&output=html&source=placeapi_v2', 'overall_rating': '0.0', 'image_num': '3', 'children': []}}
{'name': '中国农业银行24小时自助银行(中心街)', 'location': {'lat': 22.961889, 'lng': 113.403929}, 'address': '广东省广州市番禺区中心街', 'province': '广东省', 'city': '广州市', 'area': '番禺区', 'street_id': '3479b2dc171e6bda39e4a675', 'detail': 1, 'uid': '3479b2dc171e6bda39e4a675', 'detail_info': {'tag': '金融;atm', 'type': 'life', 'detail_url': 'http://api.map.baidu.com/place/detail?uid=3479b2dc171e6bda39e4a675&output=html&source=placeapi_v2', 'image_num': '4', 'children': []}}
{'name': '广州农商银行(尚东尚筑支行)', 'location': {'lat': 22.943484, 'lng': 113.413261}, 'address': '广州市番禺区亚运大道辅路283号金港湾购物广场F1', 'province': '广东省', 'city': '广州市', 'area': '番禺区', 'telephone': '(020)39106585,(020)39968808', 'detail': 1, 'uid': '508945df51cfd46782a12e71', 'detail_info': {'tag': '金融;信用社', 'navi_location': {'lng': 113.41345730466, 'lat': 22.943482393984}, 'indoor_floor': 'F1', 'type': 'life', 'detail_url': 'http://api.map.baidu.com/place/detail?uid=508945df51cfd46782a12e71&output=html&source=placeapi_v2', 'overall_rating': '5.0', 'image_num': '6', 'comment_num': '4', 'children': []}}
{'name': '中国建设银行个人贷款中心', 'location': {'lat': 22.93465, 'lng': 113.386032}, 'address': '东兴路28', 'province': '广东省', 'city': '广州市', 'area': '番禺区', 'street_id': '9929ad69e908c68d2efaa766', 'detail': 1, 'uid': '9929ad69e908c68d2efaa766', 'detail_info': {'tag': '金融;银行', 'type': 'life', 'detail_url': 'http://api.map.baidu.com/place/detail?uid=9929ad69e908c68d2efaa766&output=html&source=placeapi_v2', 'overall_rating': '4.7', 'image_num': '4', 'comment_num': '5', 'children': []}}
{'name': '中国邮政储蓄银行24小时自助银行(石基大龙支行)', 'location': {'lat': 22.942749, 'lng': 113.403302}, 'address': '广州市番禺区亚运大道与兴华三路交叉路口往东约50米(翠拥华庭二期)', 'province': '广东省', 'city': '广州市', 'area': '番禺区', 'street_id': '1298e45c679989edb21e3673', 'detail': 1, 'uid': '1298e45c679989edb21e3673', 'detail_info': {'tag': '金融;atm', 'type': 'life', 'detail_url': 'http://api.map.baidu.com/place/detail?uid=1298e45c679989edb21e3673&output=html&source=placeapi_v2', 'overall_rating': '0.0', 'image_num': '7', 'comment_num': '1', 'children': []}}
{'name': '广州农商银行24小时自助银行(石岗支行)', 'location': {'lat': 22.947062, 'lng': 113.404805}, 'address': '广东省广州市番禺区市莲路石岗东村段41号A29铺', 'province': '广东省', 'city': '广州市', 'area': '番禺区', 'street_id': '0b7f7bcd0eb67e5d96f08c3a', 'detail': 1, 'uid': '0b7f7bcd0eb67e5d96f08c3a', 'detail_info': {'tag': '金融;atm', 'navi_location': {'lng': 113.40490006883, 'lat': 22.946950214297}, 'type': 'life', 'detail_url': 'http://api.map.baidu.com/place/detail?uid=0b7f7bcd0eb67e5d96f08c3a&output=html&source=placeapi_v2', 'overall_rating': '0.0', 'image_num': '7', 'comment_num': '2', 'children': []}}
{'name': '广州农商银行ATM(竹山支行)', 'location': {'lat': 22.957005, 'lng': 113.39537}, 'address': '竹山工业路33', 'province': '广东省', 'city': '广州市', 'area': '番禺区', 'street_id': '94b998d957ebde0072455b7f', 'detail': 1, 'uid': '94b998d957ebde0072455b7f', 'detail_info': {'tag': '金融;atm', 'navi_location': {'lng': 113.39544018778, 'lat': 22.956981150238}, 'type': 'life', 'detail_url': 'http://api.map.baidu.com/place/detail?uid=94b998d957ebde0072455b7f&output=html&source=placeapi_v2', 'overall_rating': '0.0', 'image_num': '3', 'comment_num': '1', 'children': []}}
{'name': '广州市农村商业银行(大罗分理处)', 'location': {'lat': 22.966281, 'lng': 113.359634}, 'address': '广东省广州市番禺区桥兴大道589号首层', 'province': '广东省', 'city': '广州市', 'area': '番禺区', 'street_id': '5c2dc21dff68f67a6fc02c12', 'telephone': '(020)84877441', 'detail': 1, 'uid': '5c2dc21dff68f67a6fc02c12', 'detail_info': {'tag': '金融;信用社', 'navi_location': {'lng': 113.35979965618, 'lat': 22.966357701037}, 'type': 'life', 'detail_url': 'http://api.map.baidu.com/place/detail?uid=5c2dc21dff68f67a6fc02c12&output=html&source=placeapi_v2', 'overall_rating': '0.0', 'image_num': '8', 'comment_num': '2', 'children': []}}
{'name': '中国农业发展银行(番禺支行环城西路支行)', 'location': {'lat': 22.944584, 'lng': 113.36645}, 'address': '环城西路144', 'province': '广东省', 'city': '广州市', 'area': '番禺区', 'street_id': 'a74481d68cd7b446f503b8c7', 'telephone': '(020)84831135', 'detail': 1, 'uid': 'a74481d68cd7b446f503b8c7', 'detail_info': {'tag': '金融;银行', 'type': 'life', 'detail_url': 'http://api.map.baidu.com/place/detail?uid=a74481d68cd7b446f503b8c7&output=html&source=placeapi_v2', 'overall_rating': '0.0', 'image_num': '10', 'comment_num': '2', 'children': []}}
{'name': '中国建设银行24小时自助银行', 'location': {'lat': 22.943594, 'lng': 113.394385}, 'address': '广州市番禺区亚运大道1号永旺梦乐城广州番禺广场F1', 'province': '广东省', 'city': '广州市', 'area': '番禺区', 'street_id': '78c3d9cea2ac458e223bf29b', 'detail': 1, 'uid': '78c3d9cea2ac458e223bf29b', 'detail_info': {'tag': '金融;atm', 'indoor_floor': 'F1', 'type': 'life', 'detail_url': 'http://api.map.baidu.com/place/detail?uid=78c3d9cea2ac458e223bf29b&output=html&source=placeapi_v2', 'image_num': '1', 'children': []}}
{'name': '广州农商银行24小时自助银行(金岗路)', 'location': {'lat': 22.964526, 'lng': 113.406302}, 'address': '广州市番禺区金岗路与旧村南路交叉路口东南侧(好邻居购物广场西南侧)', 'province': '广东省', 'city': '广州市', 'area': '番禺区', 'detail': 1, 'uid': 'cb6365af4e4d0388eb56fa3d', 'detail_info': {'tag': '金融;atm', 'navi_location': {'lng': 113.40599244247, 'lat': 22.964601612789}, 'type': 'life', 'detail_url': 'http://api.map.baidu.com/place/detail?uid=cb6365af4e4d0388eb56fa3d&output=html&source=placeapi_v2', 'overall_rating': '0.0', 'image_num': '3', 'comment_num': '1', 'children': []}}
{'name': '汇丰银行(奥园广场)', 'location': {'lat': 22.929691, 'lng': 113.363544}, 'address': '广州市番禺区福德路317号奥园广场F1', 'province': '广东省', 'city': '广州市', 'area': '番禺区', 'street_id': '9b5a9769eed988263617dc51', 'telephone': '(020)83131048', 'detail': 1, 'uid': '9b5a9769eed988263617dc51', 'detail_info': {'tag': '金融;银行', 'navi_location': {'lng': 113.36337956084, 'lat': 22.929215685782}, 'indoor_floor': 'F1', 'type': 'life', 'detail_url': 'http://api.map.baidu.com/place/detail?uid=9b5a9769eed988263617dc51&output=html&source=placeapi_v2', 'overall_rating': '0.0', 'image_num': '4', 'children': []}}
{'name': '广州农商银行24小时自助银行(平康支行)', 'location': {'lat': 22.946564, 'lng': 113.385783}, 'address': '沙溪西大街59号', 'province': '广东省', 'city': '广州市', 'area': '番禺区', 'street_id': '6e350601ecaa176940024564', 'detail': 1, 'uid': '6e350601ecaa176940024564', 'detail_info': {'tag': '金融;atm', 'type': 'life', 'detail_url': 'http://api.map.baidu.com/place/detail?uid=6e350601ecaa176940024564&output=html&source=placeapi_v2', 'image_num': '1', 'children': []}}
{'name': '交通违法处理终端机(中国银行广州番禺北城支行)', 'location': {'lat': 22.960466, 'lng': 113.368257}, 'address': '广东省广州市番禺区市桥光明北路383号中国银行', 'province': '广东省', 'city': '广州市', 'area': '番禺区', 'detail': 1, 'uid': '11adbfdb1d62ae96e812e479', 'detail_info': {'tag': '金融;其他', 'type': 'life', 'detail_url': 'http://api.map.baidu.com/place/detail?uid=11adbfdb1d62ae96e812e479&output=html&source=placeapi_v2', 'image_num': '1', 'children': []}}
{'name': '中国邮政储蓄银行个人小企融资专家', 'location': {'lat': 22.939633, 'lng': 113.38377}, 'address': '东沙路与德兴南路交叉口西50米', 'province': '广东省', 'city': '广州市', 'area': '番禺区', 'detail': 1, 'uid': 'beb58d750973ab01744ff12e', 'detail_info': {'tag': '金融;银行', 'type': 'life', 'detail_url': 'http://api.map.baidu.com/place/detail?uid=beb58d750973ab01744ff12e&output=html&source=placeapi_v2', 'overall_rating': '4.0', 'image_num': '1', 'comment_num': '1', 'children': []}}
{'name': '中国广大银行阳光理财中心', 'location': {'lat': 22.952712, 'lng': 113.368437}, 'address': '广东省广州市番禺区富华西路49号', 'province': '广东省', 'city': '广州市', 'area': '番禺区', 'detail': 1, 'uid': '232258e5b475cdc69cec2b35', 'detail_info': {'tag': '金融;其他', 'type': 'life', 'detail_url': 'http://api.map.baidu.com/place/detail?uid=232258e5b475cdc69cec2b35&output=html&source=placeapi_v2', 'overall_rating': '3.0', 'image_num': '1', 'comment_num': '1', 'children': []}}
{'name': '中信银行番禺小企业金融业务中心', 'location': {'lat': 22.941392, 'lng': 113.395593}, 'address': '石基镇清河东路罗家村段4号', 'province': '广东省', 'city': '广州市', 'area': '番禺区', 'detail': 1, 'uid': '385c2a9ffc8d0e50b21e3659', 'detail_info': {'tag': '金融;其他', 'type': 'life', 'detail_url': 'http://api.map.baidu.com/place/detail?uid=385c2a9ffc8d0e50b21e3659&output=html&source=placeapi_v2', 'image_num': '1', 'children': []}}
{'name': '中国邮政储蓄银行(大南邮政储蓄所)', 'location': {'lat': 22.940486, 'lng': 113.371459}, 'address': '大南路75号', 'province': '广东省', 'city': '广州市', 'area': '番禺区', 'detail': 1, 'uid': '7cfffa95ea11e5907bf7962f', 'detail_info': {'tag': '金融;银行', 'type': 'life', 'detail_url': 'http://api.map.baidu.com/place/detail?uid=7cfffa95ea11e5907bf7962f&output=html&source=placeapi_v2', 'image_num': '1', 'children': []}}
{'name': '番禺宾馆-自动取款机', 'location': {'lat': 22.948216, 'lng': 113.373303}, 'address': '广东省广州市番禺区桥大北路130号', 'province': '广东省', 'city': '广州市', 'area': '番禺区', 'street_id': '1db352f40e086f2e9cec2b1d', 'detail': 1, 'uid': '1db352f40e086f2e9cec2b1d', 'detail_info': {'tag': '金融;atm', 'navi_location': {'lng': 113.37323642914, 'lat': 22.948216596937}, 'type': 'life', 'detail_url': 'http://api.map.baidu.com/place/detail?uid=1db352f40e086f2e9cec2b1d&output=html&source=placeapi_v2', 'overall_rating': '0.0', 'image_num': '1', 'children': []}}
{'name': '广州农商银行市桥微小贷中心', 'location': {'lat': 22.94965, 'lng': 113.371978}, 'address': '桥兴大道3号3层', 'province': '广东省', 'city': '广州市', 'area': '番禺区', 'street_id': '9552a9d6b121d5c24c3a59d7', 'detail': 1, 'uid': '9552a9d6b121d5c24c3a59d7', 'detail_info': {'tag': '金融;银行', 'type': 'life', 'detail_url': 'http://api.map.baidu.com/place/detail?uid=9552a9d6b121d5c24c3a59d7&output=html&source=placeapi_v2', 'image_num': '1', 'children': []}}
{'name': '中国银行资金交易中心', 'location': {'lat': 22.940783, 'lng': 113.391801}, 'address': '清河东路338号中银大厦', 'province': '广东省', 'city': '广州市', 'area': '番禺区', 'street_id': 'c624f90c60372a0484154132', 'detail': 1, 'uid': 'c624f90c60372a0484154132', 'detail_info': {'tag': '金融;其他', 'type': 'life', 'detail_url': 'http://api.map.baidu.com/place/detail?uid=c624f90c60372a0484154132&output=html&source=placeapi_v2', 'overall_rating': '0.0', 'image_num': '3', 'children': []}}
{'name': '广州家商银行', 'location': {'lat': 22.942239, 'lng': 113.360456}, 'address': '广州市番禺区市桥西丽南路112号', 'province': '广东省', 'city': '广州市', 'area': '番禺区', 'detail': 1, 'uid': '316ad30287910627e6e9652b', 'detail_info': {'tag': '金融;银行', 'type': 'life', 'detail_url': 'http://api.map.baidu.com/place/detail?uid=316ad30287910627e6e9652b&output=html&source=placeapi_v2', 'image_num': '4', 'children': []}}
{'name': '个人贷款中心', 'location': {'lat': 22.940868, 'lng': 113.392156}, 'address': '市桥清河东路338号中银大厦3楼', 'province': '广东省', 'city': '广州市', 'area': '番禺区', 'detail': 1, 'uid': '36326e511fc87ffb9868b463', 'detail_info': {'tag': '金融;其他', 'navi_location': {'lng': 113.391710002, 'lat': 22.940455297246}, 'type': 'life', 'detail_url': 'http://api.map.baidu.com/place/detail?uid=36326e511fc87ffb9868b463&output=html&source=placeapi_v2', 'image_num': '1', 'children': []}}
{'name': 'Dontlookatme(永旺梦乐城广州番禺广场店)', 'location': {'lat': 22.943696, 'lng': 113.394478}, 'address': '广州市番禺区亚运大道1号永旺梦乐城广州番禺广场B1', 'province': '广东省', 'city': '广州市', 'area': '番禺区', 'detail': 1, 'uid': '27f9bfeb3fd0266458f6beaa', 'detail_info': {'tag': '金融;atm', 'indoor_floor': 'B1', 'type': 'life', 'detail_url': 'http://api.map.baidu.com/place/detail?uid=27f9bfeb3fd0266458f6beaa&output=html&source=placeapi_v2', 'image_num': '1', 'children': []}}
{'name': '中国工商银行24小时自助银行(番禺支行)', 'location': {'lat': 22.952391, 'lng': 113.367999}, 'address': '广州市番禺区市桥光明北路209号', 'province': '广东省', 'city': '广州市', 'area': '番禺区', 'street_id': '3ed4091ff3b6859e715e8079', 'detail': 1, 'uid': '3ed4091ff3b6859e715e8079', 'detail_info': {'tag': '金融;atm', 'navi_location': {'lng': 113.36817651675, 'lat': 22.952487564169}, 'type': 'life', 'detail_url': 'http://api.map.baidu.com/place/detail?uid=3ed4091ff3b6859e715e8079&output=html&source=placeapi_v2', 'overall_rating': '3.0', 'image_num': '9', 'comment_num': '2', 'children': []}}
{'name': '广州农村商业银行(清河东路支行)', 'location': {'lat': 22.942289, 'lng': 113.385433}, 'address': '广州市番禺区市桥街清河东路239号首层', 'province': '广东省', 'city': '广州市', 'area': '番禺区', 'street_id': 'bff8fa7df67812dec8213d0f', 'telephone': '(020)34619819', 'detail': 1, 'uid': 'bff8fa7df67812dec8213d0f', 'detail_info': {'tag': '金融;银行', 'navi_location': {'lng': 113.38541845257, 'lat': 22.942031323683}, 'type': 'life', 'detail_url': 'http://api.map.baidu.com/place/detail?uid=bff8fa7df67812dec8213d0f&output=html&source=placeapi_v2', 'overall_rating': '3.5', 'image_num': '7', 'comment_num': '3', 'children': []}}
{'name': '中国工商银行(金港湾购物广场)', 'location': {'lat': 22.943387, 'lng': 113.413155}, 'address': '广州市番禺区亚运大道辅路283号金港湾购物广场F1', 'province': '广东省', 'city': '广州市', 'area': '番禺区', 'street_id': '5eb54b2ca4d005294054d763', 'telephone': '(020)39968513', 'detail': 1, 'uid': 'ddff5bc9459b6f88f72310ac', 'detail_info': {'tag': '金融;银行', 'navi_location': {'lng': 113.41311856353, 'lat': 22.943305780729}, 'indoor_floor': 'F1', 'type': 'life', 'detail_url': 'http://api.map.baidu.com/place/detail?uid=ddff5bc9459b6f88f72310ac&output=html&source=placeapi_v2', 'overall_rating': '3.3', 'image_num': '8', 'comment_num': '11', 'children': []}}
{'name': '广州市农村金融服务站', 'location': {'lat': 22.95203, 'lng': 113.41532}, 'address': '广州市番禺区市莲路与傍雁路交叉路口东南侧(格林豪泰酒店西南侧约50米)', 'province': '广东省', 'city': '广州市', 'area': '番禺区', 'detail': 1, 'uid': '6b6f5353f283cccaa8f7297d', 'detail_info': {'tag': '金融;银行', 'type': 'life', 'detail_url': 'http://api.map.baidu.com/place/detail?uid=6b6f5353f283cccaa8f7297d&output=html&source=placeapi_v2', 'image_num': '2', 'children': []}}
{'name': '中国工商银行24小时自助银行(清河东路支行)', 'location': {'lat': 22.943423, 'lng': 113.413107}, 'address': '广州市番禺区城区大道283号金港湾购物广场F1', 'province': '广东省', 'city': '广州市', 'area': '番禺区', 'street_id': '3ea53db0300ab28bfda7788f', 'detail': 1, 'uid': '3ea53db0300ab28bfda7788f', 'detail_info': {'tag': '金融;atm', 'navi_location': {'lng': 113.41313756809, 'lat': 22.943276661027}, 'indoor_floor': 'F1', 'type': 'life', 'detail_url': 'http://api.map.baidu.com/place/detail?uid=3ea53db0300ab28bfda7788f&output=html&source=placeapi_v2', 'overall_rating': '1.0', 'image_num': '8', 'comment_num': '2', 'children': []}}
{'name': '中国工商银行24小时自助银行(广州番禺富华支行)', 'location': {'lat': 22.953084, 'lng': 113.376187}, 'address': '市桥街富华东路39-41号铺', 'province': '广东省', 'city': '广州市', 'area': '番禺区', 'detail': 1, 'uid': 'ced668dae96e5ce2a6da39de', 'detail_info': {'tag': '金融;atm', 'navi_location': {'lng': 113.37585579621, 'lat': 22.95321807604}, 'type': 'life', 'detail_url': 'http://api.map.baidu.com/place/detail?uid=ced668dae96e5ce2a6da39de&output=html&source=placeapi_v2', 'overall_rating': '5.0', 'image_num': '5', 'comment_num': '2', 'children': []}}
{'name': '广州市农村商业银行(南城支行)', 'location': {'lat': 22.923327, 'lng': 113.367364}, 'address': '广东省广州市番禺区桥南街南城路343号', 'province': '广东省', 'city': '广州市', 'area': '番禺区', 'street_id': '3b90776af69b5d9b9cf7799c', 'telephone': '(020)34601539', 'detail': 1, 'uid': '3b90776af69b5d9b9cf7799c', 'detail_info': {'tag': '金融;信用社', 'type': 'life', 'detail_url': 'http://api.map.baidu.com/place/detail?uid=3b90776af69b5d9b9cf7799c&output=html&source=placeapi_v2', 'overall_rating': '2.8', 'image_num': '9', 'comment_num': '5', 'children': []}}
{'name': '中国工商银行24小时自助银行(兴泰支行)', 'location': {'lat': 22.938441, 'lng': 113.384714}, 'address': '兴泰路2－10号', 'province': '广东省', 'city': '广州市', 'area': '番禺区', 'street_id': '3f890130f36707bb1e1d11f9', 'detail': 1, 'uid': '3f890130f36707bb1e1d11f9', 'detail_info': {'tag': '金融;atm', 'type': 'life', 'detail_url': 'http://api.map.baidu.com/place/detail?uid=3f890130f36707bb1e1d11f9&output=html&source=placeapi_v2', 'overall_rating': '0.0', 'image_num': '4', 'comment_num': '1', 'children': []}}
{'name': '中国工商银行24小时自助银行(广州番禺沙湾支行)', 'location': {'lat': 22.912806, 'lng': 113.354511}, 'address': '广东省广州市番禺区青云大道85号', 'province': '广东省', 'city': '广州市', 'area': '番禺区', 'street_id': '1436da4ab540caeb3b221c7b', 'detail': 1, 'uid': '1436da4ab540caeb3b221c7b', 'detail_info': {'tag': '金融;atm', 'navi_location': {'lng': 113.35463247982, 'lat': 22.912884496477}, 'type': 'life', 'detail_url': 'http://api.map.baidu.com/place/detail?uid=1436da4ab540caeb3b221c7b&output=html&source=placeapi_v2', 'overall_rating': '0.0', 'image_num': '5', 'comment_num': '1', 'children': []}}
{'name': '中国工商银行24小时自助银行(环城中路)', 'location': {'lat': 22.946453, 'lng': 113.374121}, 'address': '广东省广州市番禺区环城中路166号', 'province': '广东省', 'city': '广州市', 'area': '番禺区', 'street_id': '7ab7799714f9ad25d813189e', 'detail': 1, 'uid': '7ab7799714f9ad25d813189e', 'detail_info': {'tag': '金融;atm', 'type': 'life', 'detail_url': 'http://api.map.baidu.com/place/detail?uid=7ab7799714f9ad25d813189e&output=html&source=placeapi_v2', 'overall_rating': '0.0', 'image_num': '3', 'comment_num': '1', 'children': []}}
{'name': '广州市农村商业银行(黄编支行)', 'location': {'lat': 22.954941, 'lng': 113.375333}, 'address': '广东省广州市番禺区大北路360号', 'province': '广东省', 'city': '广州市', 'area': '番禺区', 'street_id': 'f446091810c0cb14b11e3605', 'telephone': '(020)84893047', 'detail': 1, 'uid': 'f446091810c0cb14b11e3605', 'detail_info': {'tag': '金融;信用社', 'navi_location': {'lng': 113.37520433045, 'lat': 22.954986482797}, 'type': 'life', 'detail_url': 'http://api.map.baidu.com/place/detail?uid=f446091810c0cb14b11e3605&output=html&source=placeapi_v2', 'overall_rating': '0.0', 'image_num': '7', 'comment_num': '1', 'children': []}}
{'name': '广州市农村商业银行(东晟明珠支行)', 'location': {'lat': 22.9347, 'lng': 113.394692}, 'address': '广州市番禺区东兴路426号-428号', 'province': '广东省', 'city': '广州市', 'area': '番禺区', 'street_id': '72a06ca38dd25d00ca291522', 'telephone': '(020)39250023', 'detail': 1, 'uid': '72a06ca38dd25d00ca291522', 'detail_info': {'tag': '金融;信用社', 'navi_location': {'lng': 113.39466190038, 'lat': 22.934941618941}, 'type': 'life', 'detail_url': 'http://api.map.baidu.com/place/detail?uid=72a06ca38dd25d00ca291522&output=html&source=placeapi_v2', 'overall_rating': '0.0', 'image_num': '5', 'comment_num': '2', 'children': []}}
{'name': '广州市农村商业银行(沙湾支行)', 'location': {'lat': 22.911025, 'lng': 113.351674}, 'address': '广东省广州市番禺区中华大道306号', 'province': '广东省', 'city': '广州市', 'area': '番禺区', 'street_id': 'd1469ee7d2e2a91c84330401', 'telephone': '(020)34876488', 'detail': 1, 'uid': 'd1469ee7d2e2a91c84330401', 'detail_info': {'tag': '金融;信用社', 'navi_location': {'lng': 113.35121965908, 'lat': 22.910942240234}, 'type': 'life', 'detail_url': 'http://api.map.baidu.com/place/detail?uid=d1469ee7d2e2a91c84330401&output=html&source=placeapi_v2', 'overall_rating': '0.0', 'image_num': '10', 'comment_num': '1', 'children': []}}
{'name': '广州市农村商业银行(禺山支行)', 'location': {'lat': 22.946445, 'lng': 113.365368}, 'address': '广州市番禺区禺山大道106号', 'province': '广东省', 'city': '广州市', 'area': '番禺区', 'street_id': '7388dffd54be6795d3ff2339', 'telephone': '(020)84838780', 'detail': 1, 'uid': '7388dffd54be6795d3ff2339', 'detail_info': {'tag': '金融;信用社', 'navi_location': {'lng': 113.36549289015, 'lat': 22.946303348466}, 'type': 'life', 'detail_url': 'http://api.map.baidu.com/place/detail?uid=7388dffd54be6795d3ff2339&output=html&source=placeapi_v2', 'overall_rating': '0.0', 'image_num': '5', 'comment_num': '1', 'children': []}}
{'name': '乐有家禺秀园分行', 'location': {'lat': 22.947811, 'lng': 113.366345}, 'address': '广东省广州市番禺区繁华路111', 'province': '广东省', 'city': '广州市', 'area': '番禺区', 'detail': 1, 'uid': '441b10df9e5fe7bf704b870c', 'detail_info': {'tag': '购物;其他', 'navi_location': {'lng': 113.36628461528, 'lat': 22.947919423545}, 'type': 'shopping', 'detail_url': 'http://api.map.baidu.com/place/detail?uid=441b10df9e5fe7bf704b870c&output=html&source=placeapi_v2', 'overall_rating': '0.0', 'children': []}}
{'name': '中国建设银行(亚运城支行)', 'location': {'lat': 22.960186, 'lng': 113.495666}, 'address': '石楼镇南环路132号尚上名筑1层', 'province': '广东省', 'city': '广州市', 'area': '番禺区', 'street_id': 'b3aa435d0273c67615764306', 'detail': 1, 'uid': 'b3aa435d0273c67615764306', 'detail_info': {'tag': '金融;银行', 'navi_location': {'lng': 113.49587553622, 'lat': 22.959836378772}, 'type': 'life', 'detail_url': 'http://api.map.baidu.com/place/detail?uid=b3aa435d0273c67615764306&output=html&source=placeapi_v2', 'overall_rating': '2.9', 'image_num': '8', 'comment_num': '10', 'children': []}}
{'name': '中国工商银行(广州亚运城支行)', 'location': {'lat': 22.950592, 'lng': 113.488594}, 'address': '石楼镇兴亚三路A区116号国际商业街A区升旗广场旁', 'province': '广东省', 'city': '广州市', 'area': '番禺区', 'detail': 1, 'uid': '948bcf34b41478d2a7da39ee', 'detail_info': {'tag': '金融;银行', 'navi_location': {'lng': 113.48855188676, 'lat': 22.950754839759}, 'type': 'life', 'detail_url': 'http://api.map.baidu.com/place/detail?uid=948bcf34b41478d2a7da39ee&output=html&source=placeapi_v2', 'overall_rating': '5.0', 'image_num': '2', 'comment_num': '2', 'children': []}}
{'name': '中国银行(广州番禺石基支行)', 'location': {'lat': 22.961605, 'lng': 113.44285}, 'address': '广州市番禺区石基镇龙基中路37号', 'province': '广东省', 'city': '广州市', 'area': '番禺区', 'street_id': '3092c1871236a546dc1e52c5', 'telephone': '(020)84857636', 'detail': 1, 'uid': '3092c1871236a546dc1e52c5', 'detail_info': {'tag': '金融;银行', 'navi_location': {'lng': 113.44306085673, 'lat': 22.961577233645}, 'type': 'life', 'detail_url': 'http://api.map.baidu.com/place/detail?uid=3092c1871236a546dc1e52c5&output=html&source=placeapi_v2', 'overall_rating': '1.4', 'image_num': '13', 'comment_num': '13', 'children': []}}
{'name': '中国工商银行(番禺石基支行)', 'location': {'lat': 22.958792, 'lng': 113.444461}, 'address': '石基镇荔新大道2-4号', 'province': '广东省', 'city': '广州市', 'area': '番禺区', 'street_id': '101bc61bc3e314a3c42ba1ff', 'telephone': '(020)84850398,(020)84855738', 'detail': 1, 'uid': '101bc61bc3e314a3c42ba1ff', 'detail_info': {'tag': '金融;银行', 'navi_location': {'lng': 113.44454839586, 'lat': 22.958712495929}, 'type': 'life', 'detail_url': 'http://api.map.baidu.com/place/detail?uid=101bc61bc3e314a3c42ba1ff&output=html&source=placeapi_v2', 'overall_rating': '3.3', 'image_num': '7', 'comment_num': '8', 'children': []}}
{'name': '中国农业银行ATM', 'location': {'lat': 22.948393, 'lng': 113.494824}, 'address': '广东省广州市番禺区亚运南路63号', 'province': '广东省', 'city': '广州市', 'area': '番禺区', 'detail': 1, 'uid': '79d0d0bee3625d00e6073826', 'detail_info': {'tag': '金融;atm', 'type': 'life', 'detail_url': 'http://api.map.baidu.com/place/detail?uid=79d0d0bee3625d00e6073826&output=html&source=placeapi_v2', 'image_num': '1', 'children': []}}
{'name': '中国工商银行24小时自助银行(亚运城支行)', 'location': {'lat': 22.950595, 'lng': 113.488515}, 'address': '广州市番禺区兴亚三路与莲花湾路交叉路口往东北约100米(升旗广场东北侧)', 'province': '广东省', 'city': '广州市', 'area': '番禺区', 'detail': 1, 'uid': 'd67d35d29e401363cd04ef1c', 'detail_info': {'tag': '金融;atm', 'type': 'life', 'detail_url': 'http://api.map.baidu.com/place/detail?uid=d67d35d29e401363cd04ef1c&output=html&source=placeapi_v2', 'image_num': '3', 'children': []}}
{'name': '中国农业银行ATM', 'location': {'lat': 22.959449, 'lng': 113.464603}, 'address': '广州市番禺区市莲路与官峰街交叉路口东南侧(骏宇酒店北侧)', 'province': '广东省', 'city': '广州市', 'area': '番禺区', 'street_id': '2b0eadd29ef4d0e2eedfca55', 'detail': 1, 'uid': '2b0eadd29ef4d0e2eedfca55', 'detail_info': {'tag': '金融;atm', 'navi_location': {'lng': 113.46453966845, 'lat': 22.959528474122}, 'type': 'life', 'detail_url': 'http://api.map.baidu.com/place/detail?uid=2b0eadd29ef4d0e2eedfca55&output=html&source=placeapi_v2', 'overall_rating': '3.0', 'image_num': '7', 'comment_num': '2', 'children': []}}
{'name': '中国建设银行24小时自助银行(亚运城支行)', 'location': {'lat': 22.960156, 'lng': 113.495556}, 'address': '石楼镇南环路132号尚上名筑1层', 'province': '广东省', 'city': '广州市', 'area': '番禺区', 'street_id': 'de927ea0e695cd3ed4851f11', 'detail': 1, 'uid': 'de927ea0e695cd3ed4851f11', 'detail_info': {'tag': '金融;atm', 'navi_location': {'lng': 113.49559052392, 'lat': 22.96003327615}, 'type': 'life', 'detail_url': 'http://api.map.baidu.com/place/detail?uid=de927ea0e695cd3ed4851f11&output=html&source=placeapi_v2', 'overall_rating': '5.0', 'image_num': '4', 'comment_num': '1', 'children': []}}
{'name': '中国建设银行24小时自助银行(嵩山路店)', 'location': {'lat': 22.968139, 'lng': 113.485046}, 'address': '广州市番禺区嵩山路20号', 'province': '广东省', 'city': '广州市', 'area': '番禺区', 'street_id': '2c3258d64f8cf08e28d7abcb', 'detail': 1, 'uid': '2c3258d64f8cf08e28d7abcb', 'detail_info': {'tag': '金融;atm', 'navi_location': {'lng': 113.4850516088, 'lat': 22.968262292163}, 'type': 'life', 'detail_url': 'http://api.map.baidu.com/place/detail?uid=2c3258d64f8cf08e28d7abcb&output=html&source=placeapi_v2', 'overall_rating': '0.0', 'image_num': '5', 'comment_num': '1', 'children': []}}
{'name': '广发银行24小时自助银行服务(龙碁中路店)', 'location': {'lat': 22.961098, 'lng': 113.442799}, 'address': '龙碁中路3-5', 'province': '广东省', 'city': '广州市', 'area': '番禺区', 'street_id': '2b990a5a5a4218982bd7ab39', 'detail': 1, 'uid': '2b990a5a5a4218982bd7ab39', 'detail_info': {'tag': '金融;atm', 'navi_location': {'lng': 113.4428703414, 'lat': 22.960887119221}, 'type': 'life', 'detail_url': 'http://api.map.baidu.com/place/detail?uid=2b990a5a5a4218982bd7ab39&output=html&source=placeapi_v2', 'overall_rating': '1.0', 'image_num': '8', 'comment_num': '1', 'children': []}}
{'name': '中国农业银行24小时自助银行', 'location': {'lat': 22.968702, 'lng': 113.476854}, 'address': '广东省广州市番禺区市莲路伟成鞋业股份有限公司东南门', 'province': '广东省', 'city': '广州市', 'area': '番禺区', 'street_id': '4e87ad5ea4dea0bf430245f1', 'detail': 1, 'uid': '4e87ad5ea4dea0bf430245f1', 'detail_info': {'tag': '金融;atm', 'type': 'life', 'detail_url': 'http://api.map.baidu.com/place/detail?uid=4e87ad5ea4dea0bf430245f1&output=html&source=placeapi_v2', 'overall_rating': '0.0', 'image_num': '5', 'comment_num': '1', 'children': []}}
{'name': '中国银行24小时自助银行(广州番禺石基支行)', 'location': {'lat': 22.961857, 'lng': 113.439862}, 'address': '石基镇基龙西路120号', 'province': '广东省', 'city': '广州市', 'area': '番禺区', 'detail': 1, 'uid': '54412c2f637cf2c33786f465', 'detail_info': {'tag': '金融;atm', 'navi_location': {'lng': 113.4397049909, 'lat': 22.962098459136}, 'type': 'life', 'detail_url': 'http://api.map.baidu.com/place/detail?uid=54412c2f637cf2c33786f465&output=html&source=placeapi_v2', 'image_num': '2', 'children': []}}
{'name': '中国建设银行24小时自助银行服务(广州番禺石基支行)', 'location': {'lat': 22.959378, 'lng': 113.441971}, 'address': '荔新大道30号', 'province': '广东省', 'city': '广州市', 'area': '番禺区', 'street_id': '34c421572eea968e704b87ec', 'detail': 1, 'uid': '34c421572eea968e704b87ec', 'detail_info': {'tag': '金融;atm', 'navi_location': {'lng': 113.44190639312, 'lat': 22.959309517224}, 'type': 'life', 'detail_url': 'http://api.map.baidu.com/place/detail?uid=34c421572eea968e704b87ec&output=html&source=placeapi_v2', 'overall_rating': '0.0', 'image_num': '7', 'comment_num': '2', 'children': []}}
{'name': '广州农商银行24小时自助银行(石岐支行)', 'location': {'lat': 22.95984, 'lng': 113.44855}, 'address': '广东省广州市番禺区石基镇莲塘村石莲路1号至27号之F145-149号', 'province': '广东省', 'city': '广州市', 'area': '番禺区', 'street_id': '1c27a1c1ea8b212a82a12e46', 'detail': 1, 'uid': '1c27a1c1ea8b212a82a12e46', 'detail_info': {'tag': '金融;atm', 'navi_location': {'lng': 113.44849538857, 'lat': 22.95968037972}, 'type': 'life', 'detail_url': 'http://api.map.baidu.com/place/detail?uid=1c27a1c1ea8b212a82a12e46&output=html&source=placeapi_v2', 'overall_rating': '5.0', 'image_num': '6', 'comment_num': '2', 'children': []}}
{'name': '中国邮政储蓄银行', 'location': {'lat': 22.956566, 'lng': 113.422646}, 'address': '广州市番禺区市莲路与新兴路交叉路口往西北约100米(新桥商务中心北侧约50米)', 'province': '广东省', 'city': '广州市', 'area': '番禺区', 'detail': 1, 'uid': 'd2f68c64424686df2c4733ad', 'detail_info': {'tag': '金融;银行', 'type': 'life', 'detail_url': 'http://api.map.baidu.com/place/detail?uid=d2f68c64424686df2c4733ad&output=html&source=placeapi_v2', 'image_num': '2', 'children': []}}
{'name': '中国银行24小时自助银行(石基支行)', 'location': {'lat': 22.961678, 'lng': 113.442894}, 'address': '龙碁中路37', 'province': '广东省', 'city': '广州市', 'area': '番禺区', 'street_id': '8f5c0d1b06d3d2fb3a13fdcd', 'detail': 1, 'uid': '8f5c0d1b06d3d2fb3a13fdcd', 'detail_info': {'tag': '金融;atm', 'type': 'life', 'detail_url': 'http://api.map.baidu.com/place/detail?uid=8f5c0d1b06d3d2fb3a13fdcd&output=html&source=placeapi_v2', 'overall_rating': '5.0', 'image_num': '7', 'comment_num': '1', 'children': []}}
{'name': '广州农商银行24小时自助银行(石一分理处)', 'location': {'lat': 22.954153, 'lng': 113.447425}, 'address': '市莲路77-78号', 'province': '广东省', 'city': '广州市', 'area': '番禺区', 'street_id': '4e0055beccfb1888f842b2af', 'detail': 1, 'uid': '4e0055beccfb1888f842b2af', 'detail_info': {'tag': '金融;atm', 'type': 'life', 'detail_url': 'http://api.map.baidu.com/place/detail?uid=4e0055beccfb1888f842b2af&output=html&source=placeapi_v2', 'overall_rating': '0.0', 'image_num': '3', 'comment_num': '1', 'children': []}}
{'name': '中国邮政储蓄银行24小时自助银行(石基支行)', 'location': {'lat': 22.958883, 'lng': 113.443018}, 'address': '广州市番禺区荔新大道与龙基南路交叉路口东南侧(龙基花园西南侧)', 'province': '广东省', 'city': '广州市', 'area': '番禺区', 'detail': 1, 'uid': '36c28e44f32ec2339d82ea14', 'detail_info': {'tag': '金融;atm', 'type': 'life', 'detail_url': 'http://api.map.baidu.com/place/detail?uid=36c28e44f32ec2339d82ea14&output=html&source=placeapi_v2', 'image_num': '1', 'children': []}}
{'name': '中国银行24小时自助银行(官塱路)', 'location': {'lat': 22.967884, 'lng': 113.450506}, 'address': '广东省广州市番禺区石基镇莲新大街薪源平价自选商场附近', 'province': '广东省', 'city': '广州市', 'area': '番禺区', 'street_id': '04c56d49b56838a0ca2915f1', 'detail': 1, 'uid': '04c56d49b56838a0ca2915f1', 'detail_info': {'tag': '金融;atm', 'navi_location': {'lng': 113.45061330281, 'lat': 22.967751716986}, 'type': 'life', 'detail_url': 'http://api.map.baidu.com/place/detail?uid=04c56d49b56838a0ca2915f1&output=html&source=placeapi_v2', 'overall_rating': '0.0', 'image_num': '3', 'comment_num': '1', 'children': []}}
{'name': '广州农商银行24小时自助银行(东湖洲支行)', 'location': {'lat': 22.933768, 'lng': 113.422522}, 'address': '傍雁路817', 'province': '广东省', 'city': '广州市', 'area': '番禺区', 'street_id': '2e73a5c135127052d518b79d', 'detail': 1, 'uid': '2e73a5c135127052d518b79d', 'detail_info': {'tag': '金融;atm', 'navi_location': {'lng': 113.42240133737, 'lat': 22.933751991719}, 'type': 'life', 'detail_url': 'http://api.map.baidu.com/place/detail?uid=2e73a5c135127052d518b79d&output=html&source=placeapi_v2', 'overall_rating': '5.0', 'image_num': '3', 'comment_num': '2', 'children': []}}
{'name': '广州农商银行(新桥支行)', 'location': {'lat': 22.957277, 'lng': 113.424081}, 'address': '广东省广州市番禺区荣华路1附近', 'province': '广东省', 'city': '广州市', 'area': '番禺区', 'street_id': '0269bbec449d0edde5073861', 'detail': 1, 'uid': '0269bbec449d0edde5073861', 'detail_info': {'tag': '金融;信用社', 'navi_location': {'lng': 113.42436377019, 'lat': 22.957208619239}, 'type': 'life', 'detail_url': 'http://api.map.baidu.com/place/detail?uid=0269bbec449d0edde5073861&output=html&source=placeapi_v2', 'image_num': '2', 'children': []}}
{'name': '广州农商银行(东方红支行)', 'location': {'lat': 22.933304, 'lng': 113.475732}, 'address': '海涌路海傍村路段25', 'province': '广东省', 'city': '广州市', 'area': '番禺区', 'telephone': '(020)34558944', 'detail': 1, 'uid': 'f1f5cac5faef53e636b06c06', 'detail_info': {'tag': '金融;信用社', 'type': 'life', 'detail_url': 'http://api.map.baidu.com/place/detail?uid=f1f5cac5faef53e636b06c06&output=html&source=placeapi_v2', 'overall_rating': '0.0', 'image_num': '2', 'comment_num': '2', 'children': []}}
{'name': '平安银行ATM', 'location': {'lat': 22.948393, 'lng': 113.494824},