name, lat, lng, province, city, area, address, tag
'中国农业银行(顺德碧江支行)', 22.952884, 113.266303, '广东省', '佛山市', '顺德区', '佛山市顺德区北滘镇碧江大道6号', '金融;银行'
'招商银行(碧桂支行)', 22.950208, 113.28237, '广东省', '佛山市', '顺德区', '佛山市顺德区北滘镇碧桂园南九路1号', '金融;银行'
'中国银行(顺德泰宁支行)', 22.948439, 113.268167, '广东省', '佛山市', '顺德区', '佛山市顺德区北滘镇碧江大道54号', '金融;银行'
'中国建设银行(顺德碧桂园支行)', 22.954934, 113.281233, '广东省', '佛山市', '顺德区', '北窖镇碧江村碧桂园正苑国际会所旁', '金融;银行'
'中国工商银行(佛山顺德碧桂支行)', 22.960469, 113.279828, '广东省', '佛山市', '顺德区', '广东省佛山市顺德区北滘镇碧碧桂园写字楼东楼16~17A号', '金融;银行'
'中国农业银行(顺德丹桂支行)', 22.952952, 113.282994, '广东省', '佛山市', '顺德区', '碧桂园南一路3号', '金融;银行'
'中国邮政储蓄银行(碧江支行)', 22.952542, 113.266817, '广东省', '佛山市', '顺德区', '广东省佛山市顺德区碧江大道17号', '金融;银行'
'顺德农村商业银行(北滘碧江支行)', 22.94803, 113.268981, '广东省', '佛山市', '顺德区', '广东省佛山市顺德区泰宁西路4号', '金融;信用社'
'顺德农商银行', 22.955163, 113.279798, '广东省', '佛山市', '顺德区', '北滘镇碧桂园正苑西一街一号', '金融;银行'
'中国农业银行24小时自助银行(顺德桂园支行)', 22.94822, 113.267845, '广东省', '佛山市', '顺德区', '广东省佛山市顺德区泰宁路64', '金融;atm'
'中国银行ATM', 22.946311, 113.265398, '广东省', '佛山市', '顺德区', '佛山市顺德区北滘镇碧江泰宁西路51号万象时尚广场F1', '金融;atm'
'中国农业银行(顺德碧桂支行)', 22.96014, 113.278811, '广东省', '佛山市', '顺德区', '顺德区碧桂园办公楼5-9号', '金融;银行'
'中国建设银行ATM', 22.941713, 113.26851, '广东省', '佛山市', '顺德区', '广东省佛山市顺德区坤洲中路88号附近', '金融;atm'
'顺德农商银行(西海分理处)', 22.921096, 113.265144, '广东省', '佛山市', '顺德区', '西海大道1号', '金融;信用社'
'中国邮政储蓄银行24小时自助银行(碧江支行)', 22.952544, 113.266778, '广东省', '佛山市', '顺德区', '广东省佛山市顺德区碧江大道12', '金融;atm'
'中国银行24小时自助银行(北窖镇)', 22.948439, 113.268167, '广东省', '佛山市', '顺德区', '佛山市顺德区北窖镇碧江大道54号', '金融;atm'
'中国建设银行24小时自助银行', 22.927868, 113.27478, '广东省', '佛山市', '顺德区', '广东省佛山市顺德区S43(广珠西线高速)', '金融;atm'
'中国建设银行24小时自助银行', 22.954808, 113.265568, '广东省', '佛山市', '顺德区', '广东省佛山市顺德区珠江大道2号附近', '金融;atm'
'中国农业银行24小时自助银行(官三线)', 22.954509, 113.287895, '广东省', '佛山市', '顺德区', '佛山市顺德区誉晖花园23号铺', '金融;atm'
'顺德农商银行ATM(东胜支行)', 22.943086, 113.278328, '广东省', '佛山市', '顺德区', '佛山市顺德区北滘镇碧桂园碧桂西苑翠茵居十一街2-6号', '金融;atm'
'中国农业银行24小时自助银行(顺德碧江支行)', 22.952854, 113.2663, '广东省', '佛山市', '顺德区', '广东省佛山市顺德区碧江大道6', '金融;atm'
'中国农业银行24小时自助银行(佛山顺德桃西支行)', 22.923915, 113.264512, '广东省', '佛山市', '顺德区', '佛山市顺德区烈士中路78号', '金融;atm'
'中国农业银行ATM(顺德碧桂支行)', 22.960033, 113.279065, '广东省', '佛山市', '顺德区', '广东省佛山市顺德区韦涌人民路碧桂园东区碧桂园集团旁', '金融;atm'
'顺德农商银行24小时自助银行(三桂大道店)', 22.95431, 113.290188, '广东省', '佛山市', '顺德区', '三桂大道2号', '金融;atm'
'顺德区农村商业银行ATM(碧桂园)', 22.930223, 113.27531, '广东省', '佛山市', '顺德区', '广东省佛山市顺德区碧桂园总部大楼', '金融;atm'
'中国农业银行24小时自助银行(西海自助银行)', 22.92036, 113.262879, '广东省', '佛山市', '顺德区', '佛山市顺德区西海大道与小学东路交叉路口往东约50米(西海小学东侧约100米)', '金融;atm'
'顺德农村商业银行24小时自助银行', 22.921073, 113.265101, '广东省', '佛山市', '顺德区', '佛山市顺德区西海大道1号', '金融;atm'
'顺德碧桂园度假村-自动取款机', 22.942853, 113.286426, '广东省', '佛山市', '顺德区', '北滘镇碧桂园内', '金融;atm'
'顺德农商银行(北滘桃村分理处)', 22.925529, 113.264341, '广东省', '佛山市', '顺德区', '佛山市顺德区北滘镇桃村村委会桃源大道2号', '金融;信用社'
'中国工商银行24小时自助银行(顺德碧桂支行)', 22.960434, 113.279794, '广东省', '佛山市', '顺德区', '北滘镇三桂村委会碧桂园碧桂豪园度假村', '金融;atm'
'顺德农商银行(北滘承德支行)', 22.951156, 113.266871, '广东省', '佛山市', '顺德区', '佛山市顺德区承德路28号', '金融;信用社'
'中国工商银行24小时自助银行', 22.906164, 113.27257, '广东省', '佛山市', '顺德区', '佛山市顺德区北滘镇西海二支工业区南二路', '金融;atm'
'中国建设银行(东怡支行)', 22.941639, 113.399303, '广东省', '广州市', '番禺区', '广东省广州市番禺区石基镇清河东路石岗西村段24号', '金融;银行'
'中国建设银行(番禺支行营业部)', 22.947634, 113.37026, '广东省', '广州市', '番禺区', '市桥镇繁华路41号', '金融;银行'
'中国工商银行(广州番禺平康支行)', 22.944435, 113.378724, '广东省', '广州市', '番禺区', '广州市番禺区市桥镇平康路51号', '金融;银行'
'招商银行(番禺支行)', 22.946284, 113.371911, '广东省', '广州市', '番禺区', '广东省广州市番禺区禺山大道10号', '金融;银行'
'广州银行(番禺支行)', 22.946328, 113.368262, '广东省', '广州市', '番禺区', '广东省广州市番禺区禺山大道68号', '金融;银行'
'中国银行(番禺广场支行)', 22.941065, 113.392077, '广东省', '广州市', '番禺区', '广东省广州市番禺市桥镇清河东路338号', '金融;银行'
'华夏银行(广州番禺支行)', 22.95212, 113.380454, '广东省', '广州市', '番禺区', '广东省广州市番禺区富华东路183号', '金融;银行'
'中国农业银行(广州番禺清河支行)', 22.937171, 113.389101, '广东省', '广州市', '番禺区', '广州市番禺区盛兴大街31号', '金融;银行'
'中国建设银行(广州番禺富华支行)', 22.953041, 113.37628, '广东省', '广州市', '番禺区', '广州市番禺区富华东路49、51号', '金融;银行'
'中国建设银行(东区支行)', 22.946647, 113.388277, '广东省', '广州市', '番禺区', '广东省广州市番禺区市桥街平康路330号', '金融;银行'
'中国农业银行(广州番禺德安支行)', 22.941326, 113.375155, '广东省', '广州市', '番禺区', '广州市番禺区工业路71号', '金融;银行'
'中国银行(广州番禺北城支行)', 22.96055, 113.368313, '广东省', '广州市', '番禺区', '广东省广州市番禺区光明北路383号', '金融;银行'
'中国工商银行(广州番禺支行营业室)', 22.952326, 113.367835, '广东省', '广州市', '番禺区', '番禺区市桥光明北路209号', '金融;银行'
'平安银行(广州番禺支行)', 22.944327, 113.377831, '广东省', '广州市', '番禺区', '广州市番禺区市平康路1号', '金融;银行'
'中国民生银行(广州番禺支行)', 22.95276, 113.377005, '广东省', '广州市', '番禺区', '广州市番禺区富华东路73号', '金融;银行'
'交通银行(广州东瀚园支行)', 22.941153, 113.400094, '广东省', '广州市', '番禺区', '广州市番禺区大龙街广华南路47-61号首层', '金融;银行'
'中国农业银行(广州番禺平康支行)', 22.946902, 113.387372, '广东省', '广州市', '番禺区', '广州市番禺区市桥镇平康路322号1楼', '金融;银行'
'中信银行(市桥支行)', 22.953296, 113.375553, '广东省', '广州市', '番禺区', '富华东路25号', '金融;银行'
'招商银行(广州奥园广场支行)', 22.930405, 113.364951, '广东省', '广州市', '番禺区', '广州市番禺区福德路317号奥园广场F1', '金融;银行'
'中国建设银行(东兴支行)', 22.93463, 113.386039, '广东省', '广州市', '番禺区', '广东省广州市番禺区市桥镇东兴路28号', '金融;银行'
'中国农业银行(番禺支行)', 22.954417, 113.368021, '广东省', '广州市', '番禺区', '广东省广州市番禺区光明北路227号', '金融;银行'
'兴业银行(番禺支行)', 22.950884, 113.360553, '广东省', '广州市', '番禺区', '广东省广州市番禺区市桥镇康乐路162号', '金融;银行'
'中国光大银行(广州番禺支行)', 22.952592, 113.368803, '广东省', '广州市', '番禺区', '广州市番禺区富华西路49号', '金融;银行'
'中信银行(石基镇支行)', 22.941293, 113.395484, '广东省', '广州市', '番禺区', '石基镇清河东路罗家村段4号', '金融;银行'
'交通银行(广州番禺支行)', 22.930525, 113.364774, '广东省', '广州市', '番禺区', '广东省广州市番禺区南街南华路307号', '金融;银行'
'交通银行(广州市桥支行)', 22.945911, 113.368732, '广东省', '广州市', '番禺区', '广东省广州市番禺区禺山大道91号', '金融;银行'
'中国工商银行(广州番禺喜盈支行)', 22.924062, 113.367327, '广东省', '广州市', '番禺区', '番禺区南城路323号', '金融;银行'
'中国农业银行(广州番禺亚运大道支行)', 22.943658, 113.411495, '广东省', '广州市', '番禺区', '大龙街城区大道321号', '金融;银行'
'中国银行(新城支行)', 22.947514, 113.372949, '广东省', '广州市', '番禺区', '广东省广州市番禺区大北路128号', '金融;银行'
'中国工商银行(番禺兴泰支行)', 22.938518, 113.384625, '广东省', '广州市', '番禺区', '广东省广州市番禺区兴泰路6号', '金融;银行'
'中国农业银行(广州番禺福景支行)', 22.923976, 113.366428, '广东省', '广州市', '番禺区', '广州市番禺区沙湾镇福景路1021~1027号;南城路386、388、390号', '金融;银行'
'中国农业银行(广州番禺康裕园支行)', 22.946329, 113.358254, '广东省', '广州市', '番禺区', '广东省广州市番禺区禺山大道230号', '金融;银行'
'中国农业银行(广州番禺番山支行)', 22.948196, 113.372609, '广东省', '广州市', '番禺区', '广州市番禺区市桥大北路105号', '金融;银行'
'中国工商银行(广州番禺德贤支行)', 22.93113, 113.362928, '广东省', '广州市', '番禺区', '广州市番禺区桥南街德贤路53-57号', '金融;银行'
'中国工商银行(市桥支行)', 22.939535, 113.372159, '广东省', '广州市', '番禺区', '清河中路2-6号', '金融;银行'
'中国银行(康乐路支行)', 22.95126, 113.360605, '广东省', '广州市', '番禺区', '广东省广州市市桥镇康乐路162号1层', '金融;银行'
'中国建设银行(沙湾支行)', 22.909522, 113.349514, '广东省', '广州市', '番禺区', '广东省广州市番禺区中华大道218-228号', '金融;银行'
'中信银行(广州桥南支行)', 22.928791, 113.382274, '广东省', '广州市', '番禺区', '广州市番禺区桥南街南庭路401号5座103号', '金融;银行'
'中国建设银行24小时自助银行(捷进中路店)', 22.95718, 113.370225, '广东省', '广州市', '番禺区', '广东省广州市番禺区捷进中路13号', '金融;atm'
'中国银行(广州番禺金海岸支行)', 22.937504, 113.412686, '广东省', '广州市', '番禺区', '广州市番禺区石基镇金海岸花园金海岸大道71号', '金融;银行'
'中国银行(清河东路支行)', 22.941234, 113.380357, '广东省', '广州市', '番禺区', '广东省广州市番禺区清河东路48-52号', '金融;银行'
'中国农业银行(广州番禺华景支行)', 22.931297, 113.373374, '广东省', '广州市', '番禺区', '广州市番禺区南华路42', '金融;银行'
'中国银行(广州番禺华景支行)', 22.931469, 113.370446, '广东省', '广州市', '番禺区', '广州市番禺区市桥南郊华景新城海伦堡30号铺', '金融;银行'
'中国建设银行(广州海伦堡创意园支行)', 22.943686, 113.348382, '广东省', '广州市', '番禺区', '禺山西路329号海伦堡创意园', '金融;银行'
'中国邮政储蓄银行(西丽营业所)', 22.940432, 113.360101, '广东省', '广州市', '番禺区', '广州市番禺区解放路193', '金融;银行'
'中国农业银行', 22.945557, 113.361969, '广东省', '广州市', '番禺区', '广东省广州市番禺区北桥路56号附近', '金融;银行'
'中国邮政储蓄银行(繁华路营业所)', 22.948084, 113.370398, '广东省', '广州市', '番禺区', '广东省广州市番禺区繁华路36号', '金融;银行'
'中国银行(广州番禺西丽路支行)', 22.943067, 113.360292, '广东省', '广州市', '番禺区', '番禺市桥镇西丽南路88号', '金融;银行'
'中国建设银行', 22.954174, 113.347805, '广东省', '广州市', '番禺区', '广东省广州市番禺区沙南路88号附近', '金融;银行'
'中国工商银行(番禺沙湾支行)', 22.912767, 113.35454, '广东省', '广州市', '番禺区', '广州市番禺区沙湾镇青云大道83号', '金融;银行'
'中国银行(广州番禺沙湾支行)', 22.911609, 113.351177, '广东省', '广州市', '番禺区', '广东省广州市番禺区沙湾大道9号', '金融;银行'
'中国银行(广州番禺富豪山庄支行)', 22.972185, 113.354295, '广东省', '广州市', '番禺区', '广州市番禺区东环街市广路232号富豪山庄1号商业楼20至25号', '金融;银行'
'中国工商银行(广州番禺西丽支行)', 22.941839, 113.36047, '广东省', '广州市', '番禺区', '广州市番禺区市桥镇西丽南路118号', '金融;银行'
'中国邮政储蓄银行(番禺支行)', 22.926664, 113.367478, '广东省', '广州市', '番禺区', '广东省广州市番禺区南城路273号', '金融;银行'
'中国工商银行(广州番禺康乐支行)', 22.950686, 113.360211, '广东省', '广州市', '番禺区', '广州市番禺区市桥镇康乐路162号', '金融;银行'
'中国邮政储蓄银行(广州东城支行)', 22.941538, 113.384991, '广东省', '广州市', '番禺区', '番禺区镇清河东路198号', '金融;银行'
'东莞银行(广州番禺支行)', 22.941724, 113.400065, '广东省', '广州市', '番禺区', '石碁镇广华南路71号', '金融;银行'
'中国建设银行(广州番禺海伦堡支行)', 22.931274, 113.36996, '广东省', '广州市', '番禺区', '广州市番禺区桥南街南华路130号', '金融;银行'
'中国邮政储蓄银行(番禺石基石岗营业所)', 22.943567, 113.407769, '广东省', '广州市', '番禺区', '广东省广州市番禺区石基镇石岗北路89号', '金融;银行'
'中国农业银行(广州富豪山庄支行)', 22.971787, 113.354614, '广东省', '广州市', '番禺区', '广州市番禺区市广路232号富豪山庄商业楼2-15号、16号、17号、18号、19号铺首层', '金融;银行'
'中国邮政储蓄银行(沙头支行)', 22.959416, 113.364882, '广东省', '广州市', '番禺区', '番禺区桥兴大道228号101房', '金融;银行'
'中国邮政储蓄银行(番禺南郊营业所)', 22.927223, 113.375181, '广东省', '广州市', '番禺区', '广州市番禺区桥南街桥南路215、217、219号商铺', '金融;银行'
'中国农业银行(广州番禺沙湾支行)', 22.906845, 113.344439, '广东省', '广州市', '番禺区', '广州市番禺区沙湾镇中华大道翠园西一街21座1、2层', '金融;银行'
'广发银行24小时自助银行(番禺支行)', 22.945911, 113.372372, '广东省', '广州市', '番禺区', '广州市番禺区大北路83号', '金融;atm'
'中信银行24小时自助银行(番禺支行)', 22.941587, 113.395647, '广东省', '广州市', '番禺区', '广东省广州市番禺区石基镇清河东路罗家村段4号', '金融;atm'
'汇丰银行(广州番禺支行)', 22.94097, 113.38866, '广东省', '广州市', '番禺区', '清河东路288号', '金融;银行'
'中国邮政储蓄银行(石基大龙支行)', 22.942708, 113.403353, '广东省', '广州市', '番禺区', '市番禺区亚运大道以纯东侧20米', '金融;银行'
'中国光大银行24小时自助银行(广州番禺支行)', 22.952472, 113.368836, '广东省', '广州市', '番禺区', '广州市富华西路45', '金融;atm'
'广州番禺新华村镇银行(市桥支行)', 22.944083, 113.400872, '广东省', '广州市', '番禺区', '广东省广州市番禺区大龙街市莲路石岗西村58号', '金融;银行'
'浙商银行(广州番禺支行)', 22.941192, 113.396153, '广东省', '广州市', '番禺区', '广州市番禺区亚运大道与东怡区一街横街交叉路口东南侧(和业投资大厦)', '金融;银行'
'中国邮政储蓄银行(沙湾邮局营业部)', 22.907792, 113.343297, '广东省', '广州市', '番禺区', '大巷涌路30号', '金融;银行'
'招商银行24小时自助银行(番禺支行)', 22.946214, 113.371797, '广东省', '广州市', '番禺区', '广州市番禺区禺山大道16号', '金融;atm'
'中国农业银行24小时自助银行(广州番禺福景支行)', 22.923967, 113.366405, '广东省', '广州市', '番禺区', '沙湾镇福景路1021～1027号', '金融;atm'
'南粤银行(广州番禺分行)', 22.945689, 113.367344, '广东省', '广州市', '番禺区', '市桥街光明南路199号22栋4～6号首/2层', '金融;银行'
'中国建设银行24小时自助银行(东怡支行)', 22.941545, 113.399304, '广东省', '广州市', '番禺区', '广东省广州市番禺区清河东路石岗西村段24', '金融;atm'
'中国建设银行', 22.9172, 113.360448, '广东省', '广州市', '番禺区', '广东省广州市番禺区中华大道627附近', '金融;银行'
'中国邮政储蓄银行24小时自助银行(东城营业所)', 22.941522, 113.385117, '广东省', '广州市', '番禺区', '广州市番禺区清河东路198号', '金融;atm'
'中国农业银行24小时自助银行(广州番禺平康支行)', 22.946889, 113.387391, '广东省', '广州市', '番禺区', '平康路322号1层', '金融;atm'
'中国银行24小时自助银行(广州市番禺中心医院)', 22.917786, 113.382097, '广东省', '广州市', '番禺区', '广东省广州市番禺区福愉东路8', '金融;atm'
'中国建设银行24小时自助银行(光明北路店)', 22.951195, 113.368343, '广东省', '广州市', '番禺区', '广东省广州市番禺区光明北路130号', '金融;atm'
'中国建设银行24小时自助银行(番禺支行营业部)', 22.947565, 113.370281, '广东省', '广州市', '番禺区', '繁华路41', '金融;atm'
'中国农业银行24小时自助银行', 22.949917, 113.411807, '广东省', '广州市', '番禺区', '广东省广州市番禺区市莲路傍江西村段18', '金融;atm'
'兴业银行24小时自助银行(番禺支行)', 22.950794, 113.360462, '广东省', '广州市', '番禺区', '市桥街康乐路162号首层', '金融;atm'
'广州市农村商业银行(捷进支行)', 22.955538, 113.364783, '广东省', '广州市', '番禺区', '捷进中路39号', '金融;银行'
'招商银行24小时自助银行(广州奥园广场支行)', 22.930344, 113.365261, '广东省', '广州市', '番禺区', '广州市番禺区福德路317号奥园广场F1', '金融;atm'
'中国建设银行24小时自助银行(兴华三路)', 22.944334, 113.401351, '广东省', '广州市', '番禺区', '广东省广州市番禺区市莲路石岗西村段98', '金融;atm'
'广州市农村商业银行(市桥光明支行)', 22.949313, 113.368122, '广东省', '广州市', '番禺区', '广州市番禺区市桥镇光明北路70号', '金融;信用社'
'中国建设银行24小时自助银行(永旺梦乐城)', 22.943583, 113.394386, '广东省', '广州市', '番禺区', '广州市番禺区亚运大道1号永旺梦乐城广州番禺广场F1', '金融;atm'
'广发银行24小时自助银行服务(平康路支行)', 22.946422, 113.384831, '广东省', '广州市', '番禺区', '市桥平康路183号金城大厦首层', '金融;atm'
'中国建设24小时自助银行', 22.941973, 113.378479, '广东省', '广州市', '番禺区', '广东省广州市番禺区万丰路126号附近', '金融;atm'
'中国银行24小时自助银行(广州番禺北城支行)', 22.960381, 113.36832, '广东省', '广州市', '番禺区', '光明北路383-389', '金融;atm'
'中国银行24小时自助银行(广州番禺支行)', 22.940959, 113.391924, '广东省', '广州市', '番禺区', '清河东路338号', '金融;atm'
'中国农业银行24小时自助银行(中心街)', 22.961889, 113.403929, '广东省', '广州市', '番禺区', '广东省广州市番禺区中心街', '金融;atm'
'广州农商银行(尚东尚筑支行)', 22.943484, 113.413261, '广东省', '广州市', '番禺区', '广州市番禺区亚运大道辅路283号金港湾购物广场F1', '金融;信用社'
'中国建设银行个人贷款中心', 22.93465, 113.386032, '广东省', '广州市', '番禺区', '东兴路28', '金融;银行'
'中国邮政储蓄银行24小时自助银行(石基大龙支行)', 22.942749, 113.403302, '广东省', '广州市', '番禺区', '广州市番禺区亚运大道与兴华三路交叉路口往东约50米(翠拥华庭二期)', '金融;atm'
'广州农商银行24小时自助银行(石岗支行)', 22.947062, 113.404805, '广东省', '广州市', '番禺区', '广东省广州市番禺区市莲路石岗东村段41号A29铺', '金融;atm'
'广州农商银行ATM(竹山支行)', 22.957005, 113.39537, '广东省', '广州市', '番禺区', '竹山工业路33', '金融;atm'
'广州市农村商业银行(大罗分理处)', 22.966281, 113.359634, '广东省', '广州市', '番禺区', '广东省广州市番禺区桥兴大道589号首层', '金融;信用社'
'中国农业发展银行(番禺支行环城西路支行)', 22.944584, 113.36645, '广东省', '广州市', '番禺区', '环城西路144', '金融;银行'
'中国建设银行24小时自助银行', 22.943594, 113.394385, '广东省', '广州市', '番禺区', '广州市番禺区亚运大道1号永旺梦乐城广州番禺广场F1', '金融;atm'
'广州农商银行24小时自助银行(金岗路)', 22.964526, 113.406302, '广东省', '广州市', '番禺区', '广州市番禺区金岗路与旧村南路交叉路口东南侧(好邻居购物广场西南侧)', '金融;atm'
'汇丰银行(奥园广场)', 22.929691, 113.363544, '广东省', '广州市', '番禺区', '广州市番禺区福德路317号奥园广场F1', '金融;银行'
'广州农商银行24小时自助银行(平康支行)', 22.946564, 113.385783, '广东省', '广州市', '番禺区', '沙溪西大街59号', '金融;atm'
'交通违法处理终端机(中国银行广州番禺北城支行)', 22.960466, 113.368257, '广东省', '广州市', '番禺区', '广东省广州市番禺区市桥光明北路383号中国银行', '金融;其他'
'中国邮政储蓄银行个人小企融资专家', 22.939633, 113.38377, '广东省', '广州市', '番禺区', '东沙路与德兴南路交叉口西50米', '金融;银行'
'中国广大银行阳光理财中心', 22.952712, 113.368437, '广东省', '广州市', '番禺区', '广东省广州市番禺区富华西路49号', '金融;其他'
'中信银行番禺小企业金融业务中心', 22.941392, 113.395593, '广东省', '广州市', '番禺区', '石基镇清河东路罗家村段4号', '金融;其他'
'中国邮政储蓄银行(大南邮政储蓄所)', 22.940486, 113.371459, '广东省', '广州市', '番禺区', '大南路75号', '金融;银行'
'番禺宾馆-自动取款机', 22.948216, 113.373303, '广东省', '广州市', '番禺区', '广东省广州市番禺区桥大北路130号', '金融;atm'
'广州农商银行市桥微小贷中心', 22.94965, 113.371978, '广东省', '广州市', '番禺区', '桥兴大道3号3层', '金融;银行'
'中国银行资金交易中心', 22.940783, 113.391801, '广东省', '广州市', '番禺区', '清河东路338号中银大厦', '金融;其他'
'广州家商银行', 22.942239, 113.360456, '广东省', '广州市', '番禺区', '广州市番禺区市桥西丽南路112号', '金融;银行'
'个人贷款中心', 22.940868, 113.392156, '广东省', '广州市', '番禺区', '市桥清河东路338号中银大厦3楼', '金融;其他'
'Dontlookatme(永旺梦乐城广州番禺广场店)', 22.943696, 113.394478, '广东省', '广州市', '番禺区', '广州市番禺区亚运大道1号永旺梦乐城广州番禺广场B1', '金融;atm'
'中国工商银行24小时自助银行(番禺支行)', 22.952391, 113.367999, '广东省', '广州市', '番禺区', '广州市番禺区市桥光明北路209号', '金融;atm'
'广州农村商业银行(清河东路支行)', 22.942289, 113.385433, '广东省', '广州市', '番禺区', '广州市番禺区市桥街清河东路239号首层', '金融;银行'
'中国工商银行(金港湾购物广场)', 22.943387, 113.413155, '广东省', '广州市', '番禺区', '广州市番禺区亚运大道辅路283号金港湾购物广场F1', '金融;银行'
'广州市农村金融服务站', 22.95203, 113.41532, '广东省', '广州市', '番禺区', '广州市番禺区市莲路与傍雁路交叉路口东南侧(格林豪泰酒店西南侧约50米)', '金融;银行'
'中国工商银行24小时自助银行(清河东路支行)', 22.943423, 113.413107, '广东省', '广州市', '番禺区', '广州市番禺区城区大道283号金港湾购物广场F1', '金融;atm'
'中国工商银行24小时自助银行(广州番禺富华支行)', 22.953084, 113.376187, '广东省', '广州市', '番禺区', '市桥街富华东路39-41号铺', '金融;atm'
'广州市农村商业银行(南城支行)', 22.923327, 113.367364, '广东省', '广州市', '番禺区', '广东省广州市番禺区桥南街南城路343号', '金融;信用社'
'中国工商银行24小时自助银行(兴泰支行)', 22.938441, 113.384714, '广东省', '广州市', '番禺区', '兴泰路2－10号', '金融;atm'
'中国工商银行24小时自助银行(广州番禺沙湾支行)', 22.912806, 113.354511, '广东省', '广州市', '番禺区', '广东省广州市番禺区青云大道85号', '金融;atm'
'中国工商银行24小时自助银行(环城中路)', 22.946453, 113.374121, '广东省', '广州市', '番禺区', '广东省广州市番禺区环城中路166号', '金融;atm'
'广州市农村商业银行(黄编支行)', 22.954941, 113.375333, '广东省', '广州市', '番禺区', '广东省广州市番禺区大北路360号', '金融;信用社'
'广州市农村商业银行(东晟明珠支行)', 22.9347, 113.394692, '广东省', '广州市', '番禺区', '广州市番禺区东兴路426号-428号', '金融;信用社'
'广州市农村商业银行(沙湾支行)', 22.911025, 113.351674, '广东省', '广州市', '番禺区', '广东省广州市番禺区中华大道306号', '金融;信用社'
'广州市农村商业银行(禺山支行)', 22.946445, 113.365368, '广东省', '广州市', '番禺区', '广州市番禺区禺山大道106号', '金融;信用社'
'乐有家禺秀园分行', 22.947811, 113.366345, '广东省', '广州市', '番禺区', '广东省广州市番禺区繁华路111', '购物;其他'
'中国建设银行(亚运城支行)', 22.960186, 113.495666, '广东省', '广州市', '番禺区', '石楼镇南环路132号尚上名筑1层', '金融;银行'
'中国工商银行(广州亚运城支行)', 22.950592, 113.488594, '广东省', '广州市', '番禺区', '石楼镇兴亚三路A区116号国际商业街A区升旗广场旁', '金融;银行'
'中国银行(广州番禺石基支行)', 22.961605, 113.44285, '广东省', '广州市', '番禺区', '广州市番禺区石基镇龙基中路37号', '金融;银行'
'中国工商银行(番禺石基支行)', 22.958792, 113.444461, '广东省', '广州市', '番禺区', '石基镇荔新大道2-4号', '金融;银行'
'中国农业银行ATM', 22.948393, 113.494824, '广东省', '广州市', '番禺区', '广东省广州市番禺区亚运南路63号', '金融;atm'
'中国工商银行24小时自助银行(亚运城支行)', 22.950595, 113.488515, '广东省', '广州市', '番禺区', '广州市番禺区兴亚三路与莲花湾路交叉路口往东北约100米(升旗广场东北侧)', '金融;atm'
'中国农业银行ATM', 22.959449, 113.464603, '广东省', '广州市', '番禺区', '广州市番禺区市莲路与官峰街交叉路口东南侧(骏宇酒店北侧)', '金融;atm'
'中国建设银行24小时自助银行(亚运城支行)', 22.960156, 113.495556, '广东省', '广州市', '番禺区', '石楼镇南环路132号尚上名筑1层', '金融;atm'
'中国建设银行24小时自助银行(嵩山路店)', 22.968139, 113.485046, '广东省', '广州市', '番禺区', '广州市番禺区嵩山路20号', '金融;atm'
'广发银行24小时自助银行服务(龙碁中路店)', 22.961098, 113.442799, '广东省', '广州市', '番禺区', '龙碁中路3-5', '金融;atm'
'中国农业银行24小时自助银行', 22.968702, 113.476854, '广东省', '广州市', '番禺区', '广东省广州市番禺区市莲路伟成鞋业股份有限公司东南门', '金融;atm'
'中国银行24小时自助银行(广州番禺石基支行)', 22.961857, 113.439862, '广东省', '广州市', '番禺区', '石基镇基龙西路120号', '金融;atm'
'中国建设银行24小时自助银行服务(广州番禺石基支行)', 22.959378, 113.441971, '广东省', '广州市', '番禺区', '荔新大道30号', '金融;atm'
'广州农商银行24小时自助银行(石岐支行)', 22.95984, 113.44855, '广东省', '广州市', '番禺区', '广东省广州市番禺区石基镇莲塘村石莲路1号至27号之F145-149号', '金融;atm'
'中国邮政储蓄银行', 22.956566, 113.422646, '广东省', '广州市', '番禺区', '广州市番禺区市莲路与新兴路交叉路口往西北约100米(新桥商务中心北侧约50米)', '金融;银行'
'中国银行24小时自助银行(石基支行)', 22.961678, 113.442894, '广东省', '广州市', '番禺区', '龙碁中路37', '金融;atm'
'广州农商银行24小时自助银行(石一分理处)', 22.954153, 113.447425, '广东省', '广州市', '番禺区', '市莲路77-78号', '金融;atm'
'中国邮政储蓄银行24小时自助银行(石基支行)', 22.958883, 113.443018, '广东省', '广州市', '番禺区', '广州市番禺区荔新大道与龙基南路交叉路口东南侧(龙基花园西南侧)', '金融;atm'
'中国银行24小时自助银行(官塱路)', 22.967884, 113.450506, '广东省', '广州市', '番禺区', '广东省广州市番禺区石基镇莲新大街薪源平价自选商场附近', '金融;atm'
'广州农商银行24小时自助银行(东湖洲支行)', 22.933768, 113.422522, '广东省', '广州市', '番禺区', '傍雁路817', '金融;atm'
'广州农商银行(新桥支行)', 22.957277, 113.424081, '广东省', '广州市', '番禺区', '广东省广州市番禺区荣华路1附近', '金融;信用社'
'广州农商银行(东方红支行)', 22.933304, 113.475732, '广东省', '广州市', '番禺区', '海涌路海傍村路段25', '金融;信用社'
'平安银行ATM', 22.948393, 113.494824, '广东省', '广州市', '番禺区', '广东省广州市番禺区亚运南路', '金融;atm'
'广州农商银行ATM(新桥分理处)', 22.957186, 113.424167, '广东省', '广州市', '番禺区', '市莲路新桥村段87号', '金融;atm'
'交通银行24小时自助银行(锦兴纺织漂染有限公司东)', 22.907936, 113.475701, '广东省', '广州市', '南沙区', '东涌镇励业路32号', '金融;atm'
'上海浦东发展银行24小时自助银行(励业路)', 22.908028, 113.475702, '广东省', '广州市', '南沙区', '励业路32号附近', '金融;atm'
'广州农村商业银行24小时自助银行', 22.963379, 113.439609, '广东省', '广州市', '番禺区', '广州市番禺区桥边路与金龙路交叉口北50米', '金融;atm'
'中国邮政储蓄银行24小时自助银行(新桥营业所)', 22.95652, 113.422581, '广东省', '广州市', '番禺区', '市莲路83号附近', '金融;atm'
'中国建设银行24小时自助银行(市莲路)', 22.959429, 113.464554, '广东省', '广州市', '番禺区', '广州市番禺区市莲路与官峰街交叉路口东侧(骏宇酒店北侧)', '金融;atm'
'广州农商银行24小时自助银行(市莲路)', 22.966414, 113.474823, '广东省', '广州市', '番禺区', '市莲路南浦路段10', '金融;atm'
'广州农商银行24小时自助银行(沙涌分理处)', 22.959487, 113.433453, '广东省', '广州市', '番禺区', '市莲路沙涌村段99', '金融;atm'
'新华村镇银行', 22.956738, 113.444154, '广东省', '广州市', '番禺区', '广东省广州市番禺区市莲路1号3栋附近', '金融;银行'
'广州农商银行ATM(海傍支行)', 22.933259, 113.475762, '广东省', '广州市', '番禺区', '广东省广州市番禺区海涌路海傍村路段25', '金融;atm'
'广州农商银行(石岐支行)', 22.959794, 113.448531, '广东省', '广州市', '番禺区', '石基镇莲塘村石莲路1-27号之145', '金融;信用社'
'广州农商银行24小时自助银行(石基支行)', 22.959222, 113.442723, '广东省', '广州市', '番禺区', '荔新大道10', '金融;atm'
'广州农商银行ATM', 22.963178, 113.467116, '广东省', '广州市', '番禺区', '广州市番禺区永善村路与义里中街交叉路口东南侧(永善肉菜市场北侧约50米)', '金融;atm'
'广州农商银行24小时自助银行(市莲路)', 22.959428, 113.464503, '广东省', '广州市', '番禺区', '广州市番禺区市莲路与官峰街交叉路口东南侧(骏宇酒店北侧)', '金融;atm'
'广州市农村商业银行(石基支行)', 22.959251, 113.44262, '广东省', '广州市', '番禺区', '番禺区石基镇荔新大道10号', '金融;信用社'
'中国工商银行24小时自助银行(广州番禺石基支行)', 22.958775, 113.444474, '广东省', '广州市', '番禺区', '广州市番禺区石基镇荔新大道2号之一、二、三、四', '金融;atm'
'广州农商银行(东湖洲支行)', 22.933898, 113.422626, '广东省', '广州市', '番禺区', '傍雁路819', '金融;信用社'
'广州农商银行(前锋支行)', 22.931661, 113.455062, '广东省', '广州市', '番禺区', '广东省广州市番禺区前锋南路99', '金融;信用社'
'中国农业银行(广州番禺大石支行)', 23.030897, 113.317864, '广东省', '广州市', '番禺区', '广东省广州市番禺区一零五国道大石段273号首层商场之4/5号铺', '金融;银行'
'中国工商银行(南大路支行)', 23.019339, 113.319633, '广东省', '广州市', '番禺区', '广州市番禺区105国道561号', '金融;银行'
'中国工商银行(广州保利大都汇支行)', 23.000494, 113.340815, '广东省', '广州市', '番禺区', '汉兴中路31、33、36、37号', '金融;银行'
'中国建设银行(大石支行)', 23.023835, 113.321109, '广东省', '广州市', '番禺区', '广东省广州市番禺区大石街富丽广场嘉安楼首层', '金融;银行'
'中国农业银行(广州番禺朝阳东路支行)', 23.032192, 113.331292, '广东省', '广州市', '番禺区', '广东省广州市番禺区大石街滨江绿园绿叶居商铺首层28-31号', '金融;银行'
'中国银行(大石支行)', 23.032692, 113.322549, '广东省', '广州市', '番禺区', '番禺大石镇朝阳东路187号(511430)', '金融;银行'
'中国建设银行(钟村支行)', 22.978701, 113.315864, '广东省', '广州市', '番禺区', '广东省广州市番禺区钟村镇锦绣花园北区10座34-38号', '金融;银行'
'中国工商银行(大石朝阳支行)', 23.032728, 113.330917, '广东省', '广州市', '番禺区', '广东省广州市番禺区朝阳东路121-125号', '金融;银行'
'中国银行(广州番禺星河湾支行)', 23.032297, 113.337218, '广东省', '广州市', '番禺区', '广州市番禺区大石镇星河湾西区商业街30至32号', '金融;银行'
'交通银行(广州大石支行)', 23.020356, 113.320408, '广东省', '广州市', '番禺区', '番禺区大石镇怡景花园B座首层', '金融;银行'
'中国银行(广州番禺钟村支行)', 22.983225, 113.322082, '广东省', '广州市', '番禺区', '广州市番禺区钟村镇钟灵北路8号', '金融;银行'
'广发银行(广州华南支行)', 23.032561, 113.317477, '广东省', '广州市', '番禺区', '广州市番禺区大石街105国道大石段255号1楼', '金融;银行'
'中国建设银行ATM(南站北路店)', 22.994738, 113.275966, '广东省', '广州市', '番禺区', '广州市番禺区钟村镇石壁街道南站北路广州南站B1', '金融;atm'
'中国工商银行(广州大石支行)', 23.031024, 113.317208, '广东省', '广州市', '番禺区', '广州市番禺区广番公路大石路段368号', '金融;银行'
'中国建设银行(新城支行)', 23.031543, 113.336171, '广东省', '广州市', '番禺区', '广东省广州市番禺区迎宾路540号', '金融;银行'
'中国农业银行(广州番禺钟村支行)', 22.982094, 113.322403, '广东省', '广州市', '番禺区', '广州市番禺区钟村镇钟灵北路63号', '金融;银行'
'中国工商银行(锦绣生态园支行)', 22.975631, 113.315938, '广东省', '广州市', '番禺区', '广东省广州市番禺区锦绣生态园4、8、10、12号铺', '金融;银行'
'兴业银行(钟村奥园社区支行)', 22.989447, 113.32813, '广东省', '广州市', '番禺区', '广东省广州市番禺区钟村街南国奥园北奥一路4区2座1层', '金融;银行'
'中国银行(祈福支行)', 22.97663, 113.34117, '广东省', '广州市', '番禺区', '广州市番禺区福华路与市广路交叉路口往南约100米(祈福集团中心)', '金融;银行'
'中国银行(番禺巨大产业园支行)', 23.019538, 113.291445, '广东省', '广州市', '番禺区', '广东省广州市番禺区石北工业路684号巨大创意产业园12栋105号', '金融;银行'
'上海浦东发展银行(广州钟福小微支行)', 22.974808, 113.329623, '广东省', '广州市', '番禺区', '广州市番禺区钟村街钟屏岔道钟福广场首层3号铺', '金融;银行'
'招商银行(保利大都汇社区支行)', 23.000063, 113.34116, '广东省', '广州市', '番禺区', '保利大都汇B6汉兴中路57号', '金融;银行'
'中国邮政储蓄银行(大石朝阳邮局营业部)', 23.032844, 113.325409, '广东省', '广州市', '番禺区', '广东省广州市番禺区大石镇朝阳东路295号', '金融;银行'
'中国银行(广州番禺石壁支行)', 23.007428, 113.278619, '广东省', '广州市', '番禺区', '广州市番禺区钟村镇石壁村谢石路101号', '金融;银行'
'中国邮政储蓄银行24小时自助银行(105新地广场店)', 23.027088, 113.318692, '广东省', '广州市', '番禺区', '广东省广州市番禺区一零五国道大石段474~480号105新地118铺', '金融;atm'
'广发银行ATM(南站北路店)', 22.995986, 113.276417, '广东省', '广州市', '番禺区', '广州市番禺区钟村镇石壁街道南站北路广州南站F1', '金融;atm'
'中国银行24小时自助银行(广州番禺钟村支行)', 22.983161, 113.322172, '广东省', '广州市', '番禺区', '广东省广州市番禺区钟村镇钟灵北路8号', '金融;atm'
'中国工商银行(渔人码头)', 23.037246, 113.310277, '广东省', '广州市', '番禺区', '广州市番禺区新湖路与新虹路交叉口渔人码头商业中心F1', '金融;银行'
'中国建设银行24小时自助银行', 22.981641, 113.323463, '广东省', '广州市', '番禺区', '社学东路3号B栋', '金融;atm'
'中国建设银行24小时自助银行', 23.032956, 113.317009, '广东省', '广州市', '番禺区', '广州市番禺区富石路与朝阳西路交叉路口往西约100米(荔芳园东侧)', '金融;atm'
'广州农商银行24小时自助银行', 22.994614, 113.276104, '广东省', '广州市', '番禺区', '广州市番禺区钟村镇石壁街道南站北路广州南站F3', '金融;atm'
'中国邮政储蓄银行(番禺钟村锦绣营业所)', 22.976227, 113.312924, '广东省', '广州市', '番禺区', '广州市番禺区钟村镇锦绣花园西区一期春满园12座167、169号铺', '金融;银行'
'中国邮政储蓄银行(番禺钟屏路营业所)', 22.974794, 113.324888, '广东省', '广州市', '番禺区', '广东省广州市番禺区钟村镇(街)钟屏岔道25号', '金融;银行'
'招商银行(祈福缤纷汇社区支行)', 22.976594, 113.340431, '广东省', '广州市', '番禺区', '广州市番禺区福华路与祈福隧道交叉路口南侧(祈福缤纷世界东北侧)', '金融;银行'
'中国建设银行24小时自助银行(大石支行)', 23.0237, 113.32111, '广东省', '广州市', '番禺区', '广东省广州市番禺区大石街富丽广场嘉安楼首层6号', '金融;atm'
'九江银行(广州番禺支行)', 23.020202, 113.320655, '广东省', '广州市', '番禺区', '广州市番禺区怡景花园B幢首层自编2号', '金融;银行'
'中国邮政储蓄银行(105新地广场店)', 23.027054, 113.318628, '广东省', '广州市', '番禺区', '广州市番禺区富石路与朝东路交叉路口往东南约50米(105新地娱乐美食购物广场)', '金融;银行'
'广州农商银行24小时自助银行(大石大山分社)', 23.028333, 113.326298, '广东省', '广州市', '番禺区', '广州市番禺区大涌路与红领巾路交叉路口往南约50米(大山市场南侧)', '金融;atm'
'中国邮政储蓄银行(大石城西邮局营业部)', 23.029362, 113.312506, '广东省', '广州市', '番禺区', '广东省广州市番禺区大石镇朝阳西路112号', '金融;银行'
'中国工商银行24小时自助银行(广州保利大都汇支行)', 23.000477, 113.34096, '广东省', '广州市', '番禺区', '汉溪大道东附近', '金融;atm'
'中国民生银行(石壁社区支行)', 23.006839, 113.278012, '广东省', '广州市', '番禺区', '石壁街石壁一村谢石公路99号C102', '金融;银行'
'中国农业银行24小时自助银行(番禺钟村支行)', 22.981995, 113.322317, '广东省', '广州市', '番禺区', '广州市番禺区钟村镇钟灵北路63号', '金融;atm'
'中国工商银行24小时自助银行(广州大石支行)', 23.031055, 113.317199, '广东省', '广州市', '番禺区', '丽江花园渔人码头111号', '金融;atm'
'中国银行24小时自助银行(广州番禺大石支行)', 23.032804, 113.322546, '广东省', '广州市', '番禺区', '朝阳东路187号', '金融;atm'
'交通银行24小时自助银行(广州大石支行)', 23.020349, 113.320424, '广东省', '广州市', '番禺区', '105国道怡景花园B栋D', '金融;atm'
'中国银行ATM(钟村镇石壁村)', 23.007452, 113.278561, '广东省', '广州市', '番禺区', '广州市番禺区钟村镇石壁村谢石路101号', '金融;atm'
'中国农业银行24小时自助银行服务(番禺区105国道大石段)', 23.031173, 113.317717, '广东省', '广州市', '番禺区', '广东省广州市番禺区105国道大石段273号4-5号铺', '金融;atm'
'中国农业银行24小时自助银行(广州番禺朝阳东路支行)', 23.032275, 113.331283, '广东省', '广州市', '番禺区', '朝阳东路178号', '金融;atm'
'中国建设银行24小时自助银行(钟村支行)', 22.978615, 113.315956, '广东省', '广州市', '番禺区', '钟村镇锦绣花园北区10座7-9号', '金融;atm'
'中国邮政储蓄银行24小时自助银行(广州钟村支行)', 22.983287, 113.323821, '广东省', '广州市', '番禺区', '毓秀东路10号', '金融;atm'
'招商银行24小时自助银行服务(保利大都汇社区支行)', 23.000079, 113.341161, '广东省', '广州市', '番禺区', '广东省广州市番禺区汉兴中路B6栋57号', '金融;atm'
'广州农商银行24小时自助银行', 22.983166, 113.268163, '广东省', '广州市', '番禺区', '广东省广州市番禺区钟韦路216', '金融;atm'
'中国邮政储蓄银行24小时自助银行服务(大石城西邮局营业部)', 23.029389, 113.312544, '广东省', '广州市', '番禺区', '大石镇朝阳西路112号', '金融;atm'
'广州市农村商业银行(人民路支行)', 22.979865, 113.324062, '广东省', '广州市', '番禺区', '钟村镇人民路113号', '金融;信用社'
'兴业银行ATM(迎宾路)', 23.026861, 113.34102, '广东省', '广州市', '番禺区', '番禺大道北8号渔民新村酒店1楼', '金融;atm'
'中国工商银行24小时自助银行(欢乐大道店)', 23.008841, 113.338944, '广东省', '广州市', '番禺区', '广州市番禺区迎宾路长隆欢乐世界内', '金融;atm'
'中国建设银行24小时自助银行(东冯路店)', 23.020363, 113.300822, '广东省', '广州市', '番禺区', '东冯路与石北工业路交叉口北50米', '金融;atm'
'中国邮政储蓄银行24小时自助银行(番禺钟村锦绣营业所)', 22.976184, 113.312759, '广东省', '广州市', '番禺区', '广州市番禺区钟兴路与雄数直街交叉路口往南约100米(锦绣生态园)', '金融;atm'
'中国建设银行24小时自助银行', 23.014117, 113.294578, '广东省', '广州市', '番禺区', '广东省广州市番禺区石中二路113号东北70米', '金融;atm'
'中国工商银行24小时自助银行(广州钟村支行)', 22.981886, 113.321995, '广东省', '广州市', '番禺区', '广东省广州市番禺区钟村镇人民路5号', '金融;atm'
'兴业银行24小时自助银行(南国奥园服务网点)', 22.989472, 113.328206, '广东省', '广州市', '番禺区', '钟村街南国奥园北奥一路4区2座', '金融;atm'
'中国民生银行24小时自助银行(石韦路)', 23.006791, 113.278124, '广东省', '广州市', '番禺区', '大榄地路与谢石路交叉口南150米', '金融;atm'
'广州农商银行24小时自助银行', 23.015251, 113.286683, '广东省', '广州市', '番禺区', '广州市番禺区石中三路与官坑工业二路交叉路口东侧(官坑工业园东侧约50米)', '金融;atm'
'农银大学(广东分校)', 23.039023, 113.337151, '广东省', '广州市', '番禺区', '迎宾路大石段519号广东农业银行科技园', '金融;其他'
'广州农商银行24小时自助银行(植村支行)', 23.016737, 113.336128, '广东省', '广州市', '番禺区', '植村五路259号附近', '金融;atm'
'中国邮政储蓄银行24小时自助银行(番禺钟屏路营业所)', 22.974766, 113.324968, '广东省', '广州市', '番禺区', '钟村镇钟屏岔道25号', '金融;atm'
'中国邮政储蓄银行24小时自助银行(大石朝阳邮局营业部)', 23.03289, 113.325534, '广东省', '广州市', '番禺区', '朝阳东路295', '金融;atm'
'广发银行24小时自助银行(钟村支行)', 22.98235, 113.319946, '广东省', '广州市', '番禺区', '嘉胜路8号', '金融;atm'
'平安银行24小时自助银行', 23.001099, 113.340482, '广东省', '广州市', '番禺区', '广东省广州市番禺区汉兴中路', '金融;atm'
'上海浦东发展银行24小时自助银行(钟福广场店)', 22.974826, 113.329657, '广东省', '广州市', '番禺区', '钟福广场外铺2', '金融;atm'
'中国银行广州社区金融服务站', 22.983245, 113.322179, '广东省', '广州市', '番禺区', '广东省广州市番禺区钟灵北路8号附近', '金融;银行'
'广州农村商业银行24小时自助银行(大榄地路)', 23.007937, 113.278141, '广东省', '广州市', '番禺区', '广州市番禺区大榄地路与石陈路交叉路口北侧(石一市场东北侧约50米)', '金融;atm'
'广州农商银行ATM(谢村支行)', 22.991194, 113.317383, '广东省', '广州市', '番禺区', '广州市番禺区汉溪大道中与钟村钟兴路交叉路口往西南约100米(一好站汽车服务连锁钟村店南侧约150米)', '金融;atm'
'中国建设银行24小时自助银行服务(万宝中二街店)', 22.999073, 113.31019, '广东省', '广州市', '番禺区', '广东省广州市番禺区万宝中二街', '金融;atm'
'中国建设银行24小时自助银行(广州番禺新城支行)', 23.031608, 113.336216, '广东省', '广州市', '番禺区', '广东省广州市番禺区迎宾路大石段544号', '金融;atm'
'广州农商银行(诜村分理处)', 23.0167, 113.31021, '广东省', '广州市', '番禺区', '广东省广州市番禺区石中一路61号附近', '金融;信用社'
'广州农商银行ATM(会江支行)', 23.015424, 113.302493, '广东省', '广州市', '番禺区', '会江村石中二路45号', '金融;atm'
'广州农商银行24小时自助银行', 22.976169, 113.315549, '广东省', '广州市', '番禺区', '广州市番禺区骏新路与骏兴路交叉路口往北约100米(锦绣生态园)', '金融;atm'
'广州农商银行24小时自助银行(大石支行)', 23.030361, 113.314157, '广东省', '广州市', '番禺区', '朝阳西路72-74号', '金融;atm'
'中国农业银行软件开发中心广州分中心', 23.038711, 113.336676, '广东省', '广州市', '番禺区', '迎宾路大石段519号', '金融;银行'
'广州农商银行24小时自助银行(人民路支行)', 22.979812, 113.324055, '广东省', '广州市', '番禺区', '广东省广州市番禺区人民路113', '金融;atm'
'广州农村银行24小时自助银行服务(诜村分理处)', 23.016804, 113.310118, '广东省', '广州市', '番禺区', '广东省广州市番禺区石中一路61', '金融;atm'
'广州农商银行24小时自助银行(环园中路)', 23.005797, 113.329862, '广东省', '广州市', '番禺区', '广州市番禺区汉溪路169号广州长隆水上乐园', '金融;atm'
'广州农商银行24小时自助银行(大石朝阳分理处)', 23.033067, 113.31755, '广东省', '广州市', '番禺区', '广州市番禺区富石路与朝阳西路交叉路口往西约50米(悦新国际中心北侧)', '金融;atm'
'广发银行大堂', 22.982277, 113.319922, '广东省', '广州市', '番禺区', '广东省广州市番禺区钟村街道嘉胜路17号广发银行大堂', '金融;银行'
'西联汇款24小时自助银行服务', 23.030398, 113.314217, '广东省', '广州市', '番禺区', '广东省广州市番禺区朝阳西路68号附近', '金融;atm'
'广州农商银行24小时自助银行服务(新南大街店)', 23.033613, 113.314099, '广东省', '广州市', '番禺区', '新北大街与新北西路交叉口东北50米', '金融;atm'
'广州农商银行24小时自助银行', 22.976906, 113.312324, '广东省', '广州市', '番禺区', '广州市番禺区钟兴路与雄数直街交叉路口往西南约50米(雄峰城-B1座)', '金融;atm'
'广州农商银行24小时自助银行(东联支行)', 23.026853, 113.314134, '广东省', '广州市', '番禺区', '大石镇岗东路111号', '金融;atm'
'广州农商银行24小时自助银行', 23.000959, 113.340395, '广东省', '广州市', '番禺区', '汉溪大道东东150米', '金融;atm'
'万盛名家酒店-自动取款机', 23.018108, 113.320906, '广东省', '广州市', '番禺区', '广州市番禺区香江路与洪昌工业路交叉路口西南侧(万盛名家酒店东南侧)', '金融;atm'
'中国工商银行24小时自助银行(广州南大路支行)', 23.019392, 113.319662, '广东省', '广州市', '番禺区', '广东省广州市番禺区大石街一零五国道561号', '金融;atm'
'番禺陆高海马奇瑞支行店', 23.019446, 113.318514, '广东省', '广州市', '番禺区', '105国道652号附近', '金融;银行'
'广州市农村商业银行(钟村支行)', 22.983979, 113.322543, '广东省', '广州市', '番禺区', '广州市番禺区钟灵北路3号', '金融;信用社'
'广州市农村商业银行(会江支行)', 23.015358, 113.302467, '广东省', '广州市', '番禺区', '石中二路45', '金融;信用社'
'广州农商银行(保利大都汇支行)', 23.000905, 113.340622, '广东省', '广州市', '番禺区', '汉溪长隆G出口对面保利大都汇', '金融;银行'
'广州市农村商业银行(大石中心支行)', 23.030353, 113.314167, '广东省', '广州市', '番禺区', '番禺区朝阳西路72-74号', '金融;信用社'
'广州市农村商业银行(东联支行)', 23.026922, 113.31412, '广东省', '广州市', '番禺区', '番禺区岗东路111号', '金融;信用社'
'广州市农村商业银行(谢村支行)', 22.991277, 113.317438, '广东省', '广州市', '番禺区', '广州市番禺区汉溪大道中与钟村钟兴路交叉路口往西南约100米(一好站汽车服务连锁钟村店南侧约100米)', '金融;信用社'
'广州市农村商业银行(石壁支行)', 23.007281, 113.278978, '广东省', '广州市', '番禺区', '广东省广州市番禺区石壁街石壁一村谢石公路99号', '金融;信用社'
'中国工商银行24小时自助银行(朝阳支行)', 23.032628, 113.330774, '广东省', '广州市', '番禺区', '朝阳东路121-125号中国工商银行(广州大石朝阳支行)附近', '金融;atm'
'广州农商银行(植村分理处)', 23.01697, 113.331433, '广东省', '广州市', '番禺区', '广东省广州市番禺区南大路261号', '金融;信用社'
'广州市农村商业银行(韦涌支行)', 22.983148, 113.268233, '广东省', '广州市', '番禺区', '广东省广州市番禺区钟韦路216号', '金融;信用社'
'广州农商银行(迎宾北路分理处)', 23.030483, 113.33658, '广东省', '广州市', '番禺区', '广州市番禺区迎宾路282号', '金融;信用社'
'中国工商银行24小时自助银行(广州番禺锦绣生态园支行)', 22.97549, 113.315729, '广东省', '广州市', '番禺区', '广东省广州市番禺区锦绣生态园4号铺', '金融;atm'
'广州农商银行新金融前线(广州南站)', 22.994889, 113.27594, '广东省', '广州市', '番禺区', '石壁街道石兴大道南广州南站3F层', '金融;银行'
'中国建设银行(南村支行)', 23.00915, 113.390274, '广东省', '广州市', '番禺区', '广东省广州市番禺区南村镇兴业大道921-929号长华大厦首层', '金融;银行'
'招商银行(广州星河湾支行)', 23.032689, 113.344086, '广东省', '广州市', '番禺区', '广州市番禺区番禺大道北1号', '金融;银行'
'中国农业银行(广州华南支行)', 23.017493, 113.35913, '广东省', '广州市', '番禺区', '广东省广州市番禺区兴南大道368号', '金融;银行'
'中国工商银行(广州南村支行)', 23.009535, 113.400731, '广东省', '广州市', '番禺区', '广州市番禺区南村镇南兴花园', '金融;银行'
'中信银行(万博支行)', 23.019517, 113.344568, '广东省', '广州市', '番禺区', '广东省广州市番禺区番禺大道北83号', '金融;银行'
'中国建设银行(锦绣香江支行)', 23.004798, 113.353245, '广东省', '广州市', '番禺区', '广东省广州市番禺区锦绣香江花园紫荆雅园CD栋商业大厦首层花园入口处A1区', '金融;银行'
'中国银行(雅居乐支行)', 23.010628, 113.385316, '广东省', '广州市', '番禺区', '广东省广州市番禺区兴南大道398号', '金融;银行'
'广州银行(广州华南支行)', 23.01394, 113.35668, '广东省', '广州市', '番禺区', '广东省广州市番禺区汇智三路104-106', '金融;银行'
'中国银行(广州番禺万博支行)', 23.013377, 113.35549, '广东省', '广州市', '番禺区', '广州市番禺区南村镇汇智三路97号', '金融;银行'
'中国银行(广州番禺天安科技支行)', 22.985081, 113.378008, '广东省', '广州市', '番禺区', '广州市番禺区东环街番禺大道北555号番禺节能科技园内天安总部中心2号楼', '金融;银行'
'中国工商银行(广州华南支行)', 23.015565, 113.347388, '广东省', '广州市', '番禺区', '广州市番禺区南村镇迎宾路段万博中心A1栋', '金融;银行'
'中国建设银行(雅居乐支行)', 23.015249, 113.370412, '广东省', '广州市', '番禺区', '广东省广州市番禺区南村镇观景路216号', '金融;银行'
'中国建设银行ATM', 23.023314, 113.375079, '广东省', '广州市', '番禺区', '广东省广州市番禺区兴南大道523号', '金融;atm'
'中国农业银行(广州番禺南村支行)', 23.014771, 113.397509, '广东省', '广州市', '番禺区', '广州市番禺区南光广场三号楼01号', '金融;银行'
'招商银行(广州雅居乐支行)', 23.016056, 113.367814, '广东省', '广州市', '番禺区', '南村镇雅居乐花园(商业街)公建5号首层', '金融;银行'
'招商银行(华南碧桂园支行)', 23.001027, 113.357054, '广东省', '广州市', '番禺区', '广州市番禺区南村镇华南碧桂园碧华商业一街56号4层', '金融;银行'
'中国工商银行(广州番禺节能科技园支行)', 22.984584, 113.369701, '广东省', '广州市', '番禺区', '番禺大道北番山创业中心1号楼1区101号房', '金融;银行'
'中国农业银行(广州番禺兴业大道支行)', 22.999513, 113.367996, '广东省', '广州市', '番禺区', '广州市番禺区南村镇华南碧桂园1号员工公寓首层2-3-5-6-7-8号', '金融;银行'
'中国银行(华南碧桂园支行)', 23.003709, 113.364695, '广东省', '广州市', '番禺区', '南村镇迎宾路段华南碧桂园会所第9-10号', '金融;银行'
'中国建设银行(天安科技园支行)', 22.984773, 113.37795, '广东省', '广州市', '番禺区', '广东省广州市番禺区番禺大道北555天安总部2号楼首层', '金融;银行'
'中国农业银行(广州番禺雅居乐支行)', 23.015077, 113.36883, '广东省', '广州市', '番禺区', '番禺区南村镇兴南大道398号雅居乐花园商业步行街15幢2号1铺(近南村镇政府)', '金融;银行'
'中国建设银行(广州金山谷支行)', 22.975876, 113.349628, '广东省', '广州市', '番禺区', '番禺区东艺路16号', '金融;银行'
'平安银行(广州南村雅居乐社区支行)', 23.015554, 113.368213, '广东省', '广州市', '番禺区', '广州雅居乐花园公建2一期商业街8区115号', '金融;银行'
'中国农业银行24小时自助银行服务(南村塘西工业区)', 23.020751, 113.346668, '广东省', '广州市', '番禺区', '大石街滨江绿园绿叶居商铺首层28-31号', '金融;atm'
'交通银行', 23.023589, 113.394668, '广东省', '广州市', '番禺区', '广州市番禺区滟澜街35-37号2号铺1层101房', '金融;银行'
'中国农业银行ATM(番禺迎新路支行)', 22.97608, 113.381589, '广东省', '广州市', '番禺区', '迎新路8号星力动漫产业园E1、E2、E3铺', '金融;atm'
'中国工商银行(广州雅居乐支行)', 23.016496, 113.371967, '广东省', '广州市', '番禺区', '广州市番禺区广州雅居乐花园润园105、107、109、111号商铺', '金融;银行'
'招商银行(雅居乐剑桥郡社区支行)', 23.028429, 113.391118, '广东省', '广州市', '番禺区', '广东省广州市番禺区兴南大道瀚澜一街10号铺', '金融;银行'
'中国工商银行(广州碧华坊支行)', 23.0002, 113.357477, '广东省', '广州市', '番禺区', '广州市番禺区南村镇华南碧桂园碧华坊碧华商业二街01-08号一楼商铺', '金融;银行'
'中国邮政储蓄银行(广州南村支行)', 23.013769, 113.398795, '广东省', '广州市', '番禺区', '广州市番禺区南山大道与市新公路交叉路口东侧(南园酒店东北侧约50米)', '金融;银行'
'中国银行(广州番禺海怡半岛支行)', 23.03704, 113.357401, '广东省', '广州市', '番禺区', '番禺区南村镇沙溪大道480号海怡半岛花园商业街1层C5号商铺', '金融;银行'
'兴业银行(广州雅居乐社区支行)', 23.015452, 113.372692, '广东省', '广州市', '番禺区', '广州市番禺区花巷2栋', '金融;银行'
'广州银行(科技园支行)', 22.984789, 113.376674, '广东省', '广州市', '番禺区', '广东省广州市番禺区天安总部中心1号楼102', '金融;银行'
'中国工商银行24小时自助银行(广州番禺节能科技园支行)', 22.98441, 113.370224, '广东省', '广州市', '番禺区', '广东省广州市番禺区迎宾路832号番山创业中心1号楼', '金融;atm'
'中国农业银行(广州番禺星河湾支行)', 23.032568, 113.344213, '广东省', '广州市', '番禺区', '广东省广州市番禺区星河湾酒店附楼首层', '金融;银行'
'招商银行(天安支行)', 22.985258, 113.37367, '广东省', '广州市', '番禺区', '广东省广州市番禺区番禺大道北555号天安节能科技园创新大厦首层', '金融;银行'
'中国工商银行ATM(天河城百货)', 23.014707, 113.348983, '广东省', '广州市', '番禺区', '广州市番禺区万博中心商业街10号天河城百货F1', '金融;atm'
'中国邮政储蓄银行24小时自助银行(广州南村支行)', 23.013794, 113.398657, '广东省', '广州市', '番禺区', '南村镇南山大道4号', '金融;atm'
'中国建设银行(海怡半岛支行)', 23.039265, 113.348882, '广东省', '广州市', '番禺区', '广州市番禺区沙溪大道南方五金酒店用品城十二街2-4号', '金融;银行'
'中国农业银行(广州沙溪支行)', 23.039151, 113.351698, '广东省', '广州市', '番禺区', '广东省广州市番禺区沙溪大道358-360号', '金融;银行'
'中国农业银行24小时自助银行(南村支行)', 23.014773, 113.397469, '广东省', '广州市', '番禺区', '广东省广州市番禺区南村镇南光广场3号楼1-10铺', '金融;atm'
'中国邮政储蓄银行(兴业大道营业所)', 22.994512, 113.354008, '广东省', '广州市', '番禺区', '兴业大道西858号', '金融;银行'
'中国建设银行', 23.032757, 113.344414, '广东省', '广州市', '番禺区', '广州市番禺区星光大道东与沿江东路交叉路口往南约50米(星河湾酒店)', '金融;银行'
'中国农业银行', 22.977162, 113.341402, '广东省', '广州市', '番禺区', '广州市番禺区福华路与市广路交叉路口往南约50米(祈福集团中心)', '金融;银行'
'中国工商银行(广州沙溪支行)', 23.039057, 113.352133, '广东省', '广州市', '番禺区', '广州市番禺区洛浦街道珠江花园榕江街5-7号楼商铺1层101号', '金融;银行'
'中国建设银行24小时自助银行(兴业大道店)', 22.994662, 113.352438, '广东省', '广州市', '番禺区', '广东省广州市番禺区兴业大道西995', '金融;atm'
'中国工商银行(广州祈福支行)', 22.976879, 113.341272, '广东省', '广州市', '番禺区', '市广路祈福新村福华路17号祈福集团中心一楼商铺', '金融;银行'
'中国工商银行24小时自助银行(广州华南支行)', 23.015566, 113.347199, '广东省', '广州市', '番禺区', '迎宾路段万博中心A1栋', '金融;atm'
'广发银行', 22.974982, 113.341272, '广东省', '广州市', '番禺区', '广州市番禺区福华路与鸿福路交叉路口往东北约100米(祈福酒店)', '金融;银行'
'中国工商银行(广州华碧支行)', 23.003915, 113.363882, '广东省', '广州市', '番禺区', '广州市番禺区南村镇迎宾路段华南碧桂园会所第(1-5、D-H)-1号商铺', '金融;银行'
'广州农商银行(万博支行)', 23.016734, 113.357748, '广东省', '广州市', '番禺区', '广州市番禺区万博四路与汇智一路交叉路口东北侧(敏捷海大大厦)', '金融;信用社'
'中国工商银行(广州星河湾支行)', 23.032964, 113.344273, '广东省', '广州市', '番禺区', '广州市番禺区南村镇番禺大道北1号广州星河湾酒店一层5号商铺、二层21号商铺', '金融;银行'
'中国银行24小时自助银行(广州番禺雅居乐支行)', 23.01064, 113.38532, '广东省', '广州市', '番禺区', '兴南大道398号广州雅居乐花园六期灏湖居南区九幢', '金融;atm'
'中国银行24小时自助银行', 23.013339, 113.354995, '广东省', '广州市', '番禺区', '广州市番禺区汇智三路与万博二路交叉路口东北侧(广州番禺万达广场店)', '金融;atm'
'中国建设银行24小时自助银行(南村支行)', 23.009129, 113.390311, '广东省', '广州市', '番禺区', '兴业大道921-929号长华大厦101首层', '金融;atm'
'中国建设银行24小时自助银行(南华路店)', 23.01379, 113.396518, '广东省', '广州市', '番禺区', '广州市番禺区文明路与市新公路交叉路口往西约100米(南村医院)', '金融;atm'
'中信银行24小时自助银行(万博支行)', 23.019498, 113.344675, '广东省', '广州市', '番禺区', '南大路与番禺大道北交叉口北150米', '金融;atm'
'中国银行ATM(广州番禺天安科技支行)', 22.985073, 113.377797, '广东省', '广州市', '番禺区', '广州市番禺区番禺大道北555天安总部2号楼首层', '金融;atm'
'招商银行24小时自助银行(广州雅居乐支行)', 23.016008, 113.367788, '广东省', '广州市', '番禺区', '广东省广州市番禺区南村镇员岗观景路雅居乐花园会所', '金融;atm'
'中国建设银行24小时自助银行(锦绣香江支行)', 23.004779, 113.353223, '广东省', '广州市', '番禺区', '锦绣香江花园紫荆雅园CD栋商业大厦首层花园入口处A1区', '金融;atm'
'广发银行24小时自助银行(广州万博支行)', 23.0175, 113.357717, '广东省', '广州市', '番禺区', '广东省广州市番禺区南村镇兴南大道276号1层', '金融;atm'
'中国农业银行24小时自助银行(雅居乐花园商业步行街店)', 23.015066, 113.368801, '广东省', '广州市', '番禺区', '广州市广州雅居乐花园商业步行街15幢2号首层', '金融;atm'
'平安银行24小时自助银行(广州南村雅居乐社区支行)', 23.015503, 113.3682, '广东省', '广州市', '番禺区', '南村镇兴南大道398号雅居乐花园商业街一期广场旁', '金融;atm'
'中国银行24小时自助银行(广州番禺星河湾大酒店支行)', 23.032615, 113.34456, '广东省', '广州市', '番禺区', '迎宾路星河湾大酒店附楼首层', '金融;atm'
'广州农商银行24小时自助银行(登云大路)', 23.022113, 113.351414, '广东省', '广州市', '番禺区', '登云大路13号', '金融;atm'
'招商银行ATM', 23.028424, 113.391103, '广东省', '广州市', '番禺区', '广州市番禺区市头滨江路(雅居乐剑桥汇)', '金融;atm'
'浦发银行24小时自助银行服务(广州番禺新城支行)', 23.013028, 113.354387, '广东省', '广州市', '番禺区', '广东省广州市番禺区万博二路99号', '金融;atm'
'中国农业银行24小时自助银行(广州番禺兴业大道支行)', 22.999524, 113.36808, '广东省', '广州市', '番禺区', '南村镇南村兴业大道华南碧桂园东门2-8号', '金融;atm'
'中国农业银行24小时自助银行', 22.977473, 113.352732, '广东省', '广州市', '番禺区', '广东省广州市番禺区市广路242号广东文艺职业学院', '金融;atm'
'广州银行24小时自助银行', 22.986748, 113.390113, '广东省', '广州市', '番禺区', '南村镇樟边村为民中路21号', '金融;atm'
'广州银行24小时自助银行服务(广州华南支行)', 23.013903, 113.35675, '广东省', '广州市', '番禺区', '广州市番禺区万惠一路与汇智三路交叉路口往东约50米(广州番禺万达广场店)', '金融;atm'
'中国建设银行24小时自助银行(东艺路店)', 22.97585, 113.349782, '广东省', '广州市', '番禺区', '广州市番禺区东艺路14号附近', '金融;atm'
'深圳发展银行ATM(海印又一城奥特莱斯广场)', 23.004126, 113.356037, '广东省', '广州市', '番禺区', '广州市番禺区番禺大道北383号海印又一城奥特莱斯广场B1', '金融;atm'
'招商银行24小时自助银行(天安支行)', 22.985482, 113.37378, '广东省', '广州市', '番禺区', '番禺区番禺大道北555号', '金融;atm'
'招商银行24小时自助银行(广州星河湾支行)', 23.032668, 113.344181, '广东省', '广州市', '番禺区', '番禺大道北1号星河湾酒店1层', '金融;atm'
'广州农村商业银行24小时自助银行(南村支行)', 23.013211, 113.398702, '广东省', '广州市', '番禺区', '广州市番禺区市新公路与南山大道交叉路口东南侧(南园酒店东南侧)', '金融;atm'
'广州农商银行24小时自助银行(坑头支行)', 22.989744, 113.403518, '广东省', '广州市', '番禺区', '南村镇坑头村西和路23号', '金融;atm'
'中国工商银行24小时自助银行(祈福缤纷汇支行)', 22.976801, 113.341247, '广东省', '广州市', '番禺区', '广州市番禺区福华路与市广路交叉路口往南约100米(祈福集团中心)', '金融;atm'
'广州农商银行24小时自助银行(江南分理处)', 22.997724, 113.376833, '广东省', '广州市', '番禺区', '南村镇江南村南里路28号', '金融;atm'
'广发银行24小时自助银行', 22.974933, 113.341242, '广东省', '广州市', '番禺区', '广州市番禺区福华路与鸿福路交叉路口往东北约100米(祈福酒店)', '金融;atm'
'广州农商银行24小时自助银行(新水坑分理处)', 22.981603, 113.39447, '广东省', '广州市', '番禺区', '市新路新水坑村段8号', '金融;atm'
'广州农商银行24小时自助银行(沙头龙美分社)', 22.974666, 113.376978, '广东省', '广州市', '番禺区', '广东省广州市番禺区番禺大道北909', '金融;atm'
'九江银行24小时自助银行', 23.012893, 113.354556, '广东省', '广州市', '番禺区', '广州市番禺区万博二路与汇智三路交叉口东100米', '金融;atm'
'广州银行24小时自助银行(科技园支行)', 22.985147, 113.376855, '广东省', '广州市', '番禺区', '天安总部中心1号楼101', '金融;atm'
'农村信用合作社', 23.016442, 113.402016, '广东省', '广州市', '番禺区', '广东省广州市番禺区北大街31号附近', '金融;信用社'
'广州农商银行ATM(樟边分理处)', 22.990242, 113.38962, '广东省', '广州市', '番禺区', '广东省广州市番禺区南村镇樟边村爱民路7号', '金融;atm'
'中国建设银行24小时自助银行(雅居乐支行)', 23.015228, 113.370422, '广东省', '广州市', '番禺区', '南村镇观景路216号', '金融;atm'
'中国农业银行24小时自助银行(大石街星河湾酒店后翼西北侧)', 23.032964, 113.344109, '广东省', '广州市', '番禺区', '广东省广州市番禺区大石街星河湾酒店后翼西北侧', '金融;atm'
'中国建设银行24小时自助银行(北约街)', 22.994172, 113.403993, '广东省', '广州市', '番禺区', '广东省广州市番禺区永宁大道西2号', '金融;atm'
'广州农商银行24小时自助银行(番禺万达支行)', 23.013114, 113.354517, '广东省', '广州市', '番禺区', '汇智三路73-75号', '金融;atm'
'广州农商银行24小时自助银行(万博支行)', 23.016627, 113.357918, '广东省', '广州市', '番禺区', '万博四路50', '金融;atm'
'中国建设银行24小时自助银行(广州番禺天安支行)', 22.984785, 113.377996, '广东省', '广州市', '番禺区', '番禺大道北555天安总部2号楼首层', '金融;atm'
'中国建设银行24小时自助银行', 23.032692, 113.344425, '广东省', '广州市', '番禺区', '广东省广州市番禺区番禺大道北1号', '金融;atm'
'中国农业银行24小时自助银行(沙溪支行)', 23.039141, 113.351711, '广东省', '广州市', '番禺区', '广东省广州市番禺区沙溪大道358', '金融;atm'
'中国工商银行24小时自助银行', 23.003727, 113.363658, '广东省', '广州市', '番禺区', '广州市番禺区华南碧桂园会所1层', '金融;atm'
'中国银行24小时自助银行', 22.976675, 113.341236, '广东省', '广州市', '番禺区', '广州市番禺区福华路与市广路交叉路口往南约100米(祈福集团中心)', '金融;atm'
'广州农商银行24小时自助银行(清华坊分理处)', 23.008902, 113.389508, '广东省', '广州市', '番禺区', '广州市番禺区兴业大道东与西环南路交叉路口西侧(长华大厦西侧约50米)', '金融;atm'
'广州农商银行24小时自助银行', 23.029081, 113.390562, '广东省', '广州市', '番禺区', '广州市番禺区', '金融;atm'
'广州农商银行ATM(平安二路)', 22.982139, 113.360971, '广东省', '广州市', '番禺区', '广州市番禺区榄塘路与光明北路交叉路口北侧(新光创意小镇东南侧约150米)', '金融;atm'
'广州农商银行(广州沙溪支行)', 23.039075, 113.352226, '广东省', '广州市', '番禺区', '沙溪大道282号珠江花园榕江街5-7号', '金融;信用社'
'广州农村商业银行ATM', 23.022928, 113.401827, '广东省', '广州市', '番禺区', '广东省广州市番禺区市头大道南路18', '金融;atm'
'广州农商银行24小时自助银行(蝶恋花路分理处)', 23.026551, 113.35484, '广东省', '广州市', '番禺区', '蝶恋花路22号附近', '金融;atm'
'中国建设银行24小时自助银行(海怡半岛支行)', 23.039256, 113.348849, '广东省', '广州市', '番禺区', '广东省广州市番禺区洛浦街沙溪大道254~256号', '金融;atm'
'中国银行24小时自助银行(海怡半岛支行)', 23.036906, 113.357411, '广东省', '广州市', '番禺区', '南村镇沙溪大道480号海怡半岛花园商业街1层C5号', '金融;atm'
'中国银行24小时自助银行', 23.025477, 113.419569, '广东省', '广州市', '番禺区', '广东省广州市番禺区南村镇暨南大学南校区T4宿舍楼', '金融;atm'
'广州农商银行24小时自助银行', 23.015404, 113.37249, '广东省', '广州市', '番禺区', '广东省广州市番禺区观景路268东70米', '金融;atm'
'渣打银行(中国)广州番禺支行', 22.977037, 113.341533, '广东省', '广州市', '番禺区', '广东省广州市番禺区福华路15号809房', '金融;银行'
'广州农商银行24小时自助银行(天安支行)', 22.985487, 113.376899, '广东省', '广州市', '番禺区', '番禺大道北555号(番禺节能科技园内天安总部中心1号楼104房)', '金融;atm'
'中国工商银行24小时自助银行(广州华南雅居乐支行)', 23.016596, 113.372084, '广东省', '广州市', '番禺区', '广东省广州市番禺区南大路广州雅居乐花园会所', '金融;atm'
'广州市农村商业银行(里仁洞支行)', 22.994786, 113.354719, '广东省', '广州市', '番禺区', '广州市番禺区兴业大道自在城市花园50号商铺', '金融;信用社'
'中国工商银行24小时自助银行(广州南村支行)', 23.009491, 113.400706, '广东省', '广州市', '番禺区', '广州市番禺区南兴花园', '金融;atm'
'广州市农村商业银行(永成支行)', 23.019145, 113.345111, '广东省', '广州市', '番禺区', '广东省广州市番禺区南村镇塘步西村塘西路中信银行向东南方向50米', '金融;信用社'
'广州市农村商业银行(南村支行)', 23.013359, 113.398707, '广东省', '广州市', '番禺区', '广州市番禺区市新公路与南山大道交叉路口东南侧(南园酒店东侧)', '金融;信用社'
'广州农商银行(清华坊分理处)', 23.00889, 113.389463, '广东省', '广州市', '番禺区', '广州市番禺区兴业大道东与西环南路交叉路口西侧(长华大厦西侧约50米)', '金融;信用社'
'广州市农村商业银行(番禺万达支行)', 23.013217, 113.354603, '广东省', '广州市', '番禺区', '万达广场汇智三路73-75号', '金融;信用社'
'广州农商银行(坑头支行)', 22.989696, 113.403488, '广东省', '广州市', '番禺区', '广州市番禺区西和路23号', '金融;信用社'
'广州农商银行', 23.029075, 113.39038, '广东省', '广州市', '番禺区', '广州市番禺区', '金融;银行'
'广州农商银行(市头分理处)', 23.022903, 113.40194, '广东省', '广州市', '番禺区', '广州市番禺区市头大道南路与西街交叉路口西北侧(惠芳楼东南侧)', '金融;银行'
'中国工商银行24小时自助银行(广州碧华坊支行)', 23.000201, 113.357395, '广东省', '广州市', '番禺区', '广州市番禺区碧华商业二街1号', '金融;atm'
'广州农商银行(江南支行)', 22.997801, 113.376867, '广东省', '广州市', '番禺区', '南村镇江南村南里路28号', '金融;信用社'
'广州农商银行(天安分理处)', 22.98546, 113.376897, '广东省', '广州市', '番禺区', '番禺大道北555号番禺节能科技园内天安总部中心1号楼', '金融;信用社'
'广州农商银行(新水坑分理处)', 22.981641, 113.394437, '广东省', '广州市', '番禺区', '广州市番禺区市新路新水坑段8号', '金融;信用社'
'广州农商银行', 23.015411, 113.372569, '广东省', '广州市', '番禺区', '广州市番禺区雅居乐花园雅湖居花巷2座', '金融;银行'
'广州农商银行(蝶恋花路分理处)', 23.026514, 113.354777, '广东省', '广州市', '番禺区', '广东省广州市番禺区南村镇兴南大道163号', '金融;信用社'
'中国工商银行24小时自助银行(沙溪支行)', 23.039171, 113.351976, '广东省', '广州市', '番禺区', '广州市番禺区洛浦街珠江花园榕江街5-7号楼商铺1层101号', '金融;atm'
'广州思加房地产中介服务有限公司(商业部-万博一分行)', 23.013376, 113.357218, '广东省', '广州市', '番禺区', '南村镇万惠一路132号铺', '公司企业;公司'
'广州市农村金融服务站(为民中路店)', 22.986636, 113.390071, '广东省', '广州市', '番禺区', '广东省广州市番禺区为民中路16号西南90米', '金融;投资理财'
'乐有家(华南碧桂园分行)', 22.999061, 113.357828, '广东省', '广州市', '番禺区', '广东省广州市番禺区南村镇华南碧桂园碧华坊碧华商业二街34号', '美食;小吃快餐店'
'中国农业银行(广州番禺石楼支行)', 22.975091, 113.495539, '广东省', '广州市', '番禺区', '广东省广州市番禺区石楼镇泰山路24号(镇政府旁边)', '金融;银行'
'中国工商银行(广州番禺石楼支行)', 22.973186, 113.491615, '广东省', '广州市', '番禺区', '广州市番禺区石楼镇莲港大道1号', '金融;银行'
'中国邮政储蓄银行(石楼邮局营业部)', 22.977196, 113.491108, '广东省', '广州市', '番禺区', '广州市番禺区人民路1号', '金融;银行'
'中国邮政储蓄银行24小时自助银行(石楼支行)', 22.977194, 113.491111, '广东省', '广州市', '番禺区', '石楼镇人民路1-3号', '金融;atm'
'中国农业银行24小时自助银行(广州番禺石楼支行)', 22.975196, 113.495623, '广东省', '广州市', '番禺区', '广东省广州市番禺区莲港大道85号附近', '金融;atm'
'中国银行24小时自助银行(广州番禺石楼支行)', 22.975424, 113.496097, '广东省', '广州市', '番禺区', '石楼镇泰山路24号', '金融;atm'
'中国邮政储蓄银行24小时自助银行服务(广州化龙支行)', 23.033902, 113.472296, '广东省', '广州市', '番禺区', '广州市番禺区工业路与广州绕城高速交叉路口往北约100米', '金融;atm'
'广州农商银行24小时自助银行(工业一路店)', 23.002783, 113.467506, '广东省', '广州市', '番禺区', '广东省广州市番禺区化龙镇潭山村工业一路1号之13', '金融;atm'
'中国农业银行ATM(潭山村自助银行)', 23.003391, 113.468646, '广东省', '广州市', '番禺区', '广东省广州市番禺区潭山大道2号商铺', '金融;atm'
'中国建设银行24小时自助银行', 22.988682, 113.441541, '广东省', '广州市', '番禺区', '广东省广州市番禺区松岗大街八巷', '金融;atm'
'中国农业银行ATM', 22.987041, 113.474339, '广东省', '广州市', '番禺区', '岳溪村国康大道应塘牌坊东侧自编2号地下1楼铺', '金融;atm'
'广州农商银行24小时自助银行(石楼沙浦分理处)', 22.973357, 113.492047, '广东省', '广州市', '番禺区', '莲港大道5号', '金融;atm'
'广州农村商业银行ATM(金山分理处)', 22.994648, 113.425284, '广东省', '广州市', '番禺区', '石基镇金山村金斗东路25巷1号', '金融;atm'
'广州农商银行24小时自助银行', 23.039424, 113.426477, '广东省', '广州市', '番禺区', '广东省广州市番禺区南庄大街', '金融;atm'
'广州农商银行24小时自助银行', 23.008033, 113.436829, '广东省', '广州市', '番禺区', '广东省广州市番禺区宾月大街', '金融;atm'
'广州农商银行24小时自助银行(大博分理处)', 23.000825, 113.456588, '广东省', '广州市', '番禺区', '广州市番禺区山门大道12号', '金融;atm'
'广州农商银行24小时自助银行(沙浦分理处)', 22.975764, 113.491954, '广东省', '广州市', '番禺区', '广东省广州市番禺区沙浦路44', '金融;atm'
'广州农商银行24小时自助银行(岳溪分理处)', 22.99328, 113.478725, '广东省', '广州市', '番禺区', '广东省广州市番禺区石楼广州农商银行(岳溪大道北)', '金融;atm'
'广州农商银行24小时自助银行(官桥分理处)', 22.985068, 113.461956, '广东省', '广州市', '番禺区', '桥联大街10', '金融;atm'
'广州农商银行24小时自助银行', 22.974466, 113.436529, '广东省', '广州市', '番禺区', '金龙路193-c-5号附近', '金融;atm'
'广州农村商业银行(石楼支行)', 22.973186, 113.492184, '广东省', '广州市', '番禺区', '广东省广州市番禺区莲港大道5', '金融;信用社'
'广州农商银行(岳溪分理处)', 22.993212, 113.478714, '广东省', '广州市', '番禺区', '广州市番禺区石楼镇岳溪村塘头', '金融;信用社'
'广州农商银行(石楼沙浦分理处)', 22.975842, 113.491934, '广东省', '广州市', '番禺区', '沙浦路44号', '金融;信用社'
'中国银行(广州新港中路支行)', 23.10127, 113.340938, '广东省', '广州市', '海珠区', '广州市石榴岗路1号赤岗大厦', '金融;银行'
'招商银行(海珠支行)', 23.100546, 113.276584, '广东省', '广州市', '海珠区', '江南西路63号2层', '金融;银行'
'浙商银行(广州分行营业部)', 23.09103, 113.323104, '广东省', '广州市', '海珠区', '广州市海珠区广州大道南921号', '金融;银行'
'中国银行(广州珠影支行)', 23.101415, 113.330893, '广东省', '广州市', '海珠区', '广州市海珠区新港中路376号之二101房', '金融;银行'
'中国工商银行(海珠丽影广场店)', 23.101652, 113.329112, '广东省', '广州市', '海珠区', '广东省广州市海珠区新港中路356号', '金融;银行'
'中国银行(海珠支行)', 23.092222, 113.322347, '广东省', '广州市', '海珠区', '广东省广州市海珠区广州大道南880号', '金融;银行'
'中国建设银行(广州赤岗支行)', 23.101802, 113.331225, '广东省', '广州市', '海珠区', '广州市海珠区新港中路382号首、二层', '金融;银行'
'中国建设银行(广州瑞宝分理处)', 23.072817, 113.298775, '广东省', '广州市', '海珠区', '广州市海珠区江南大道南1035、1037号，嘉鸿二街1号', '金融;银行'
'招商银行(广州金碧花园支行)', 23.073883, 113.294139, '广东省', '广州市', '海珠区', '广州市海珠区都市广场首层', '金融;银行'
'中国工商银行', 23.074458, 113.292524, '广东省', '广州市', '海珠区', '广州市海珠区工业大道南与金辉路交叉路口东侧(金碧花园)', '金融;银行'
'中国建设银行(泓景花园支行)', 23.104781, 113.33415, '广东省', '广州市', '海珠区', '广东省广州市海珠区赤岗北路64-68号首层', '金融;银行'
'中国工商银行(广州新滘支行)', 23.096652, 113.340078, '广东省', '广州市', '海珠区', '广州市海珠区石榴岗路7号', '金融;银行'
'中国邮政储蓄银行(海珠支行)', 23.093839, 113.323067, '广东省', '广州市', '海珠区', '广东省广州市海珠区广州大道南863-2', '金融;银行'
'招商银行(赤岗北路支行)', 23.102905, 113.334243, '广东省', '广州市', '海珠区', '广东省广州市珠海区赤岗北路6号瑞福大厦', '金融;银行'
'中国建设银行(广州金广纸支行)', 23.080686, 113.275811, '广东省', '广州市', '海珠区', '广州市海珠区广纸路23号', '金融;银行'
'招商银行(光大花园支行)', 23.090787, 113.262279, '广东省', '广州市', '海珠区', '广东省广州市海珠区革新路221~223号', '金融;银行'
'中国光大银行(广州大道南支行)', 23.091649, 113.323377, '广东省', '广州市', '海珠区', '广州大道南穂和南街6号', '金融;银行'
'中国建设银行(盈丰支行)', 23.075525, 113.303371, '广东省', '广州市', '海珠区', '广东省广州市海珠区盈丰路13-17号', '金融;银行'
'中国民生银行(海珠支行)', 23.099083, 113.273866, '广东省', '广州市', '海珠区', '海珠区江南西路111-117号中国石油南方大厦一层', '金融;银行'
'中信银行(宝岗大道支行)', 23.090164, 113.278265, '广东省', '广州市', '海珠区', '广东省广州市海珠区宝岗大道934号翠城·海悦广场1层', '金融;银行'
'中国光大银行(广州江南西支行)', 23.098638, 113.272999, '广东省', '广州市', '海珠区', '广东省广州市海珠区宝业路5号', '金融;银行'
'中国工商银行(广州东晓支行)', 23.079139, 113.297757, '广东省', '广州市', '海珠区', '广州市海珠区东晓南路锦胜街17号', '金融;银行'
'中国工商银行(广州穗和支行)', 23.092336, 113.323134, '广东省', '广州市', '海珠区', '广州大道南913号穗和大厦首层102号', '金融;银行'
'中国工商银行(广州南洲支行)', 23.074566, 113.303936, '广东省', '广州市', '海珠区', '广东省广州市海珠区东晓南路1295-2号', '金融;银行'
'中国民生银行(广州国际轻纺城分理处)', 23.094345, 113.304239, '广东省', '广州市', '海珠区', '广东省广州市海珠区金纺路广州国际轻纺城7楼', '金融;银行'
'中国建设银行(广州鹭江支行)', 23.101854, 113.318087, '广东省', '广州市', '海珠区', '广州市海珠区新港西路231号', '金融;银行'
'中国工商银行(广州市大塘分理处)', 23.098162, 113.334163, '广东省', '广州市', '海珠区', '广州市海珠区赤岗路赤岗一街1号首层', '金融;银行'
'中国银行(广州东晓南路支行)', 23.073467, 113.304908, '广东省', '广州市', '海珠区', '海珠区盈翠路1号', '金融;银行'
'平安银行(广州金碧花园社区支行)', 23.073763, 113.294333, '广东省', '广州市', '海珠区', '广东省广州市海珠区工业大道南821号金碧都市广场首层', '金融;银行'
'中国农业银行(广州新港中路支行)', 23.10182, 113.331858, '广东省', '广州市', '海珠区', '广州市新港中路302号', '金融;银行'
'中国农业银行(广州瑞宝支行)', 23.075039, 113.301368, '广东省', '广州市', '海珠区', '广东省广州市海珠区丽华街74号', '金融;银行'
'中国建设银行(洛浦支行)', 23.049219, 113.305364, '广东省', '广州市', '番禺区', '广东省广州市番禺区吉祥北道155号', '金融;银行'
'中国邮政储蓄银行(赤岗邮局营业部)', 23.102127, 113.33824, '广东省', '广州市', '海珠区', '新港中路533号', '金融;银行'
'中国银行(广州中山大学支行)', 23.099106, 113.298313, '广东省', '广州市', '海珠区', '广州市海珠区新港西路135号中大科技综合楼A座102室', '金融;银行'
'中国建设银行(新港路支行)', 23.097506, 113.305248, '广东省', '广州市', '海珠区', '广东省广州市海珠区新港西路143号', '金融;银行'
'中国农业银行(广州新滘支行)', 23.090271, 113.321887, '广东省', '广州市', '海珠区', '广州市海珠区广州大道南966号', '金融;银行'
'平安银行(广州新港中路支行)', 23.102551, 113.329459, '广东省', '广州市', '海珠区', '广东省广州市海珠区新港中路381-1港艺商务大厦首层', '金融;银行'
'华夏银行(海珠支行)', 23.091733, 113.321482, '广东省', '广州市', '海珠区', '广州大道中叠景路229-245号合生广场e栋首层', '金融;银行'
'中国农业银行(广州轻纺交易园支行)', 23.096776, 113.298575, '广东省', '广州市', '海珠区', '广州市海珠区新港西路82号广州轻纺交易园自编b区2层B2199-B2209、B2217-B2228', '金融;银行'
'中国银行(广州番禺洛溪支行)', 23.047108, 113.310264, '广东省', '广州市', '番禺区', '广东省广州市番禺区洛溪新城吉祥路2号', '金融;银行'
'交通银行(广州聚德支行)', 23.091828, 113.334316, '广东省', '广州市', '海珠区', '聚德北路91-93号', '金融;银行'
'交通银行(广州新港支行)', 23.102278, 113.328629, '广东省', '广州市', '海珠区', '海珠区河南新港中路381号', '金融;银行'
'中国建设银行(逸景分理处)', 23.089232, 113.314337, '广东省', '广州市', '海珠区', '华盛南路201、203、205号', '金融;银行'
'中国工商银行(江南西路支行)', 23.100988, 113.275616, '广东省', '广州市', '海珠区', '海珠区江南西路76-78号紫山大街1号之6(近润汇大厦)', '金融;银行'
'中国农业银行(广州晓港中马路支行)', 23.094177, 113.291806, '广东省', '广州市', '海珠区', '广州市海珠区泰沙路2号B铺悦安花园商铺', '金融;银行'
'中国工商银行(江南大道中支行)', 23.106027, 113.279426, '广东省', '广州市', '海珠区', '广州市海珠区江南大道中157号', '金融;银行'
'交通银行(广州南洲花园支行)', 23.076996, 113.310944, '广东省', '广州市', '海珠区', '广东省广州市海珠区南洲北路南新一街46号', '金融;银行'
'中国银行(番禺南浦支行)', 23.041807, 113.30153, '广东省', '广州市', '番禺区', '广东省广州市番禺区碧桂大道3号首层E铺1-5号', '金融;银行'
'中国工商银行(怡乐支行)', 23.102819, 113.294741, '广东省', '广州市', '海珠区', '广州市海珠区怡乐路70号大院12号', '金融;银行'
'广州银行(晓港支行)', 23.094771, 113.293026, '广东省', '广州市', '海珠区', '广州市海珠区东晓南路与晓南一街交叉路口西北侧(五凤社区西侧)', '金融;银行'
'中国建设银行(广州海珠支行细岗路分理处)', 23.096972, 113.2869, '广东省', '广州市', '海珠区', '海珠区细岗路44-48号', '金融;银行'
'中国建设银行(广州石溪支行)', 23.079667, 113.281155, '广东省', '广州市', '海珠区', '工业大道中373号', '金融;银行'
'中国银行(广州翠城花园支行)', 23.090638, 113.277918, '广东省', '广州市', '海珠区', '广州市海珠区翠宝路192号翠城北街19~21号', '金融;银行'
'广州银行(海珠支行)', 23.098851, 113.273458, '广东省', '广州市', '海珠区', '广东省广州市海珠区宝业路1号新一城广场国美电器旁边', '金融;银行'
'中信银行(海珠支行)', 23.105705, 113.279104, '广东省', '广州市', '海珠区', '广东省广州市海珠区江南大道中134号', '金融;银行'
'中国农业银行(海珠支行)', 23.093289, 113.323001, '广东省', '广州市', '海珠区', '广州市海珠区广州大道南899号', '金融;银行'
'中国工商银行(广州广州大道支行)', 23.099397, 113.322608, '广东省', '广州市', '海珠区', '广州市海珠区广州大道南701号桂田大厦1层', '金融;银行'
'上海浦东发展银行(新港西中大支行)', 23.099273, 113.297493, '广东省', '广州市', '海珠区', '广州市海珠区新港西路135号中大科技综合楼B座1层', '金融;银行'
'中国工商银行(瑞宝支行)', 23.071894, 113.299112, '广东省', '广州市', '海珠区', '广东省广州市海珠区南洲路3号首层', '金融;银行'
'交通银行(广州广州大道支行)', 23.090029, 113.321929, '广东省', '广州市', '海珠区', '广州大道南968号', '金融;银行'
'长沙银行(财智支行)', 23.102877, 113.32128, '广东省', '广州市', '海珠区', '广州大道南442-444号', '金融;银行'
'中国工商银行(广州宝岗大道支行)', 23.102156, 113.271579, '广东省', '广州市', '海珠区', '广州市海珠区宝岗大道396号', '金融;银行'
'中国农业银行(广州五洲城支行)', 23.040721, 113.325933, '广东省', '广州市', '番禺区', '广州市番禺区洛溪新城迎宾路上漖村', '金融;银行'
'中国光大银行(广州番禺洛浦支行)', 23.049596, 113.304963, '广东省', '广州市', '番禺区', '广州市番禺区新浦路与吉祥北道交叉路口南侧(吉祥楼东南侧)', '金融;银行'
'中国工商银行(广州逸景支行)', 23.0887, 113.316637, '广东省', '广州市', '海珠区', '广东省广州市海珠区逸景路278号逸丰酒店', '金融;银行'
'中国建设银行(广州中山大学支行)', 23.099796, 113.298216, '广东省', '广州市', '海珠区', '广东省高广州市海珠区新港西路135号', '金融;银行'
'中国建设银行(沙溪支行)', 23.040799, 113.340563, '广东省', '广州市', '番禺区', '广东省广州市番禺区沙溪国际用品城c1铺', '金融;银行'
'中国农业银行(广州番禺洛城支行)', 23.049152, 113.305726, '广东省', '广州市', '番禺区', '广州市番禺区吉祥北道与新浦路交叉路口往东南约50米(吉祥北园B区西南侧)', '金融;银行'
'平安银行(广州江南支行)', 23.102341, 113.278895, '广东省', '广州市', '海珠区', '广东省广州市海珠区紫丹大街18号(与江南西路交汇)', '金融;银行'
'中国建设银行(广州大道南路分理处)', 23.092774, 113.32304, '广东省', '广州市', '海珠区', '广东省广州市海珠区广州大道南911号中智商务大厦', '金融;银行'
'中国农业银行(广州江南大道中支行)', 23.101303, 113.281738, '广东省', '广州市', '海珠区', '海珠区江南大道中217号', '金融;银行'
'广州银行(敦和支行)', 23.094778, 113.322974, '广东省', '广州市', '海珠区', '广州市海珠区广州大道南857', '金融;银行'
'中国工商银行(广州中山大学支行)', 23.102048, 113.302781, '广东省', '广州市', '海珠区', '广州市海珠区新港西路135号中大西南区494栋105房', '金融;银行'
'中国建设银行(广州海珠支行国际轻纺城分理处)', 23.094113, 113.303696, '广东省', '广州市', '海珠区', '海珠区金纺路2号广州国际轻纺城C区4楼C4005号', '金融;银行'
'中国建设银行(昌岗路支行)', 23.094916, 113.280371, '广东省', '广州市', '海珠区', '海珠区昌岗中路197号', '金融;银行'
'广州银行(江晓路支行)', 23.073796, 113.299232, '广东省', '广州市', '海珠区', '广东省广州海珠区江晓路21-25号', '金融;银行'
'中国银行(广州怡乐路支行)', 23.101099, 113.294657, '广东省', '广州市', '海珠区', '广州市海珠区怡乐路78号一楼B102A', '金融;银行'
'中国农业银行(广州宝岗大道支行)', 23.103606, 113.27132, '广东省', '广州市', '海珠区', '广东省广州市海珠区宝岗大道285号', '金融;银行'
'广州银行(赤岗支行)', 23.101843, 113.330631, '广东省', '广州市', '海珠区', '新港中路376-1', '金融;银行'
'中国光大银行(翠城社区支行)', 23.089559, 113.27589, '广东省', '广州市', '海珠区', '广东省广州市海珠区翠华路1号', '金融;银行'
'中国农业银行(翠城花园支行)', 23.089575, 113.278554, '广东省', '广州市', '海珠区', '广东省广州市海珠区宝岗大道944号101房', '金融;银行'
'中国建设银行(丽江支行)', 23.039888, 113.308878, '广东省', '广州市', '番禺区', '广州市番禺区大石镇南浦岛丽江花园丽荃楼首层商铺', '金融;银行'
'中国工商银行(国际轻纺城支行)', 23.094394, 113.304015, '广东省', '广州市', '海珠区', '广州市海珠区广州国际轻纺城金纺路2号D区4层', '金融;银行'
'交通银行(广州海珠支行)', 23.103192, 113.280148, '广东省', '广州市', '海珠区', '广东省广州市海珠区江南大道中162号', '金融;银行'
'中国工商银行(广州鹭江支行)', 23.101297, 113.318441, '广东省', '广州市', '海珠区', '广州市海珠区新港西路224号', '金融;银行'
'招商银行(翠城支行)', 23.089053, 113.275781, '广东省', '广州市', '海珠区', '广东省广州市海珠区翠华路16号翠华小区4号门', '金融;银行'
'中国农业银行(广州江南西路支行)', 23.100868, 113.277295, '广东省', '广州市', '海珠区', '广州市海珠区江南西路49号首层', '金融;银行'
'中国邮政储蓄银行(南洲路支行)', 23.07704, 113.30959, '广东省', '广州市', '海珠区', '广州市海珠区南洲北路179号', '金融;银行'
'中国建设银行(广州光大花园分理处)', 23.093207, 113.264764, '广东省', '广州市', '海珠区', '广东省广州市海珠区榕景路87号', '金融;银行'
'中国工商银行(广州顺景支行)', 23.093662, 113.299367, '广东省', '广州市', '海珠区', '广州市海珠区新港西路立新东街一号顺景雅苑首层之一', '金融;银行'
'中国工商银行(大石新浦支行)', 23.049918, 113.304644, '广东省', '广州市', '番禺区', '广州市番禺区大石镇洛溪新城吉祥北园吉祥北道169、171、173号(地铁二号线洛溪站A出口)', '金融;银行'
'中国银行(燕子岗支行)', 23.081427, 113.281055, '广东省', '广州市', '海珠区', '广东省广州市海珠区江燕路375号首层', '金融;银行'
'中国工商银行(广州泰沙路支行)', 23.092826, 113.292287, '广东省', '广州市', '海珠区', '广州市海珠区凤阳社区泰沙路21号', '金融;银行'
'中国农业银行(广州金碧支行)', 23.07332, 113.294045, '广东省', '广州市', '海珠区', '广东省广州市海珠区工业大道南路金碧花园第66-67栋108号房', '金融;银行'
'广州银行(江燕路支行)', 23.086037, 113.284696, '广东省', '广州市', '海珠区', '广东省广州市海珠区江燕路180号', '金融;银行'
'中国工商银行(广州洛溪支行)', 23.047298, 113.313171, '广东省', '广州市', '番禺区', '广州市番禺区如意路奥园城市广场1层', '金融;银行'
'中国银行(广州江南大道支行)', 23.102088, 113.281452, '广东省', '广州市', '海珠区', '广州市海珠区江南大道中215号', '金融;银行'
'华夏银行(社区支行)', 23.102305, 113.337013, '广东省', '广州市', '海珠区', '广东省广州市海珠区新港中路487号', '金融;银行'
'广州银行(昌岗路支行)', 23.091818, 113.274483, '广东省', '广州市', '海珠区', '昌岗中路116号', '金融;银行'
'渤海银行(新港西路支行)', 23.098072, 113.298853, '广东省', '广州市', '海珠区', '海珠区新港西路82号', '金融;银行'
'中国邮政储蓄银行(敦和路邮局营业部)', 23.092978, 113.32626, '广东省', '广州市', '海珠区', '广州市海珠区敦和路268号首层', '金融;银行'
'中国农业银行(广州南洲支行)', 23.069004, 113.322991, '广东省', '广州市', '海珠区', '广东省广州市海珠区南洲路483号', '金融;银行'
'兴业银行(金碧一期社区支行)', 23.074203, 113.293098, '广东省', '广州市', '海珠区', '工业大道南821号金碧花园一期正门', '金融;银行'
'兴业银行(侨诚花园社区支行)', 23.076423, 113.297787, '广东省', '广州市', '海珠区', '广东省广州市海珠区侨港路49号', '金融;银行'
'中国农业银行(国际轻纺城支行)', 23.094449, 113.303821, '广东省', '广州市', '海珠区', '广州市海珠区金纺路2号广州国际轻纺城4楼', '金融;银行'
'中国银行(广州长江轻纺城支行)', 23.087658, 113.304075, '广东省', '广州市', '海珠区', '广州市海珠区逸景路与凤康路交叉路口往西南约50米(新长江轻纺城)', '金融;银行'
'中国农业银行(广州逸景翠园支行)', 23.088372, 113.313747, '广东省', '广州市', '海珠区', '广东省广州市海珠区广州大道南逸景翠园自编绿屿居A座首层', '金融;银行'
'中国农业银行(广州好信广场支行)', 23.076185, 113.308563, '广东省', '广州市', '海珠区', '盈中路好信街6号好信广场', '金融;银行'
'中国农业银行(中山大学支行)', 23.102008, 113.302933, '广东省', '广州市', '海珠区', '广州市海珠区新港西路135号中山大学西南区494号逸夫艺术中心1楼', '金融;银行'
'中国工商银行(愉景支行)', 23.102855, 113.318629, '广东省', '广州市', '海珠区', '广州市海珠区大江直街与新港西路交叉路口往北约50米(愉景雅苑)', '金融;银行'
'中国农业银行(广州长江轻纺城支行)', 23.088777, 113.302962, '广东省', '广州市', '海珠区', '瑞康路389号其佳辅料城2楼B01-B02', '金融;银行'
'中国邮政储蓄银行(广州市洛浦支行)', 23.049806, 113.304814, '广东省', '广州市', '番禺区', '广州市番禺区吉祥北道165号', '金融;银行'
'中国建设银行', 23.074789, 113.301962, '广东省', '广州市', '海珠区', '广东省广州市海珠区宝兴街39号附近', '金融;银行'
'中国工商银行(广州信和广场支行)', 23.0963, 113.28128, '广东省', '广州市', '海珠区', '广州市海珠区昌岗中路239号信和广场首层112号铺', '金融;银行'
'广州银行(中大支行)', 23.095612, 113.30258, '广东省', '广州市', '海珠区', '瑞康路38号', '金融;银行'
'中国工商银行(昌岗中路支行)', 23.096278, 113.281798, '广东省', '广州市', '海珠区', '广东省广州市海珠区昌岗中路247号附近', '金融;银行'
'兴业银行(电科院社区支行)', 23.101361, 113.31714, '广东省', '广州市', '海珠区', '广东省广州市海珠区新港西路206-1', '金融;银行'
'中国银行(国际轻纺城支行)', 23.094618, 113.305071, '广东省', '广州市', '海珠区', '广东省广州市海珠区纺城南路19号', '金融;银行'
'兴业银行(江南支行)', 23.098509, 113.273598, '广东省', '广州市', '海珠区', '广东省广州市海珠区宝岗大道536号新一城广场首层', '金融;银行'
'中国邮政储蓄银行(大展雅苑支行)', 23.070162, 113.318295, '广东省', '广州市', '海珠区', '广州市南洲路池滘东三街26-28号首层', '金融;银行'
'九江银行', 23.102922, 113.29501, '广东省', '广州市', '海珠区', '怡乐路70号大院祈乐苑公交站', '金融;银行'
'交通银行(广州国际轻纺城支行)', 23.094345, 113.304239, '广东省', '广州市', '海珠区', '金纺路2号广州国际轻纺城4层', '金融;银行'
'中国邮政储蓄银行(逸景路营业所)', 23.090668, 113.310838, '广东省', '广州市', '海珠区', '广州市海珠区芳盛街41', '金融;银行'
'中国邮政储蓄银行(广州翠馨华庭支行)', 23.090528, 113.321994, '广东省', '广州市', '海珠区', '广州大道南962号', '金融;银行'
'广州市农村商业银行(坚真支行)', 23.086655, 113.332699, '广东省', '广州市', '海珠区', '广东省广州市海珠区聚德南路2号', '金融;信用社'
'中国邮政储蓄银行(广州沥滘支行)', 23.066601, 113.32204, '广东省', '广州市', '海珠区', '广东省广州市海珠区沥滘大道北四号', '金融;银行'
'广州农商银行(逸景翠园支行)', 23.09042, 113.31379, '广东省', '广州市', '海珠区', '广东省广州市海珠区华盛南路196号', '金融;信用社'
'兴业银行(逸景翠园社区支行)', 23.08923, 113.310823, '广东省', '广州市', '海珠区', '广州市海珠区逸景路与和韵街交叉路口北侧(逸景翠园)', '金融;银行'
'中国邮政储蓄银行', 23.042023, 113.301823, '广东省', '广州市', '番禺区', '洛浦街东乡村南桂路3号恒达商务中心A座首层1-3号', '金融;银行'
'中国农业银行', 23.082087, 113.302888, '广东省', '广州市', '海珠区', '广州市海珠区瑞海桥头与瑞海街中马路交叉路口西侧(瑞宝第八工业区东侧约50米)', '金融;银行'
'中国建设银行广州赤岗支行二手楼贷款中心', 23.101756, 113.331223, '广东省', '广州市', '海珠区', '广州市海珠区新港中路与艺苑路交叉路口往东约100米(鸿运花园)', '金融;其他'
'邮政银行', 23.04896, 113.308405, '广东省', '广州市', '番禺区', '广东省广州市番禺区大石镇洛溪新城新地广场邮政银行', '金融;银行'
'新华村镇银行(洛浦支行)', 23.045059, 113.316568, '广东省', '广州市', '番禺区', '洛浦街上漖村105国道以东大新商务广场首层广州番禺(上漖牌坊侧)', '金融;银行'
'中国农商银行', 23.096216, 113.282003, '广东省', '广州市', '海珠区', '昌岗中路243号附近', '金融;银行'
'中国邮政储蓄银行小额贷款专家', 23.09937, 113.288969, '广东省', '广州市', '海珠区', '广州市海珠区昌岗东路与晓港中马路交叉路口西南侧(晓港西马路小区东北侧)', '金融;其他'
'个人贷款中心', 23.101792, 113.331238, '广东省', '广州市', '海珠区', '新港中路382号二层', '金融;其他'
'广州农商银行(海珠支行)', 23.093593, 113.278603, '广东省', '广州市', '海珠区', '广东省广州市海珠区昌岗中路171号', '金融;信用社'
'广州市农村金融服务站', 23.041861, 113.334283, '广东省', '广州市', '番禺区', '广东省广州市番禺区建设路', '金融;银行'
'广州市农村金融服务站', 23.045685, 113.32071, '广东省', '广州市', '番禺区', '广州市番禺区沙滘西路与中环路交叉路口东侧(洛浦上漖小学西南侧)', '金融;银行'
'广州农村商业银行(江南西支行)', 23.101987, 113.275247, '广东省', '广州市', '海珠区', '广州市海珠区紫山大街34号', '金融;信用社'
'招商银行(合生广场支行)', 23.091704, 113.320748, '广东省', '广州市', '海珠区', '广州大道南叠景路227号合生广场首层', '金融;银行'
'中国银行(番禺大学城支行)', 23.062818, 113.392995, '广东省', '广州市', '番禺区', '广东省广州市番禺区小谷围街青蓝街26号', '金融;银行'
'中国建设银行(广州石榴岗支行)', 23.095325, 113.341288, '广东省', '广州市', '海珠区', '广州市海珠区石榴岗信步中街1-3号101铺之一', '金融;银行'
'中国建设银行24小时自助银行服务', 23.104526, 113.389089, '广东省', '广州市', '海珠区', '广东省广州市海珠区新港东路1643-11号附近', '金融;atm'
'中国农业银行(大学城中环西路店)', 23.047441, 113.378839, '广东省', '广州市', '番禺区', '广东省广州市番禺区大学城中环西路230号', '金融;银行'
'中国工商银行(大学城中环支行)', 23.045737, 113.381889, '广东省', '广州市', '番禺区', '广东省广州市番禺区大学城外环西路230号', '金融;银行'
'中国建设银行(广州琶洲支行)', 23.102277, 113.374, '广东省', '广州市', '海珠区', '新港东路1000号102房103房', '金融;银行'
'中国农业银行(广州赤岗支行)', 23.103199, 113.343747, '广东省', '广州市', '海珠区', '广州市新港东路2号', '金融;银行'
'中国农业银行(广州琶洲支行)', 23.101548, 113.373449, '广东省', '广州市', '海珠区', '广州市凤浦中路689号保利世界贸易中心D座一层', '金融;银行'
'中国工商银行(大学城支行)', 23.044193, 113.407273, '广东省', '广州市', '番禺区', '广州市番禺区大学城广工一路与文秀街交叉路口往西约50米(广东工业大学)', '金融;银行'
'中国农业银行(广州新港东路支行)', 23.1039, 113.349283, '广东省', '广州市', '海珠区', '广东省广州市海珠区新港东路148号', '金融;银行'
'中国银行ATM(广交会大厦)', 23.102256, 113.369997, '广东省', '广州市', '海珠区', '凤浦中路681号广交会威斯汀酒店1层', '金融;atm'
'中国建设银行(校园银行)', 23.056449, 113.390074, '广东省', '广州市', '番禺区', '广东省广州市番禺区大学城华师二路', '金融;银行'
'中国邮政储蓄银行(广东商学院营业所)', 23.092768, 113.361042, '广东省', '广州市', '海珠区', '广东省广州市海珠区仑头路21号校园内4号住宅楼首层', '金融;银行'
'中国邮政储蓄银行24小时自助银行(广东商学院营业所)', 23.092646, 113.36119, '广东省', '广州市', '海珠区', '广州市海珠区仑头路21号广东商学院', '金融;atm'
'中国建设银行24小时自助银行', 23.065879, 113.377392, '广东省', '广州市', '海珠区', '星汉二路与螺旋四路交叉口西北100米', '金融;atm'
'中国农业银行ATM(保利世界贸易中心博览馆)', 23.103743, 113.372907, '广东省', '广州市', '海珠区', '广东省广州市海珠区新港东路1000号保利世界贸易中心博览馆负1层', '金融;atm'
'中国银行24小时自助银行(番禺大学城支行)', 23.062941, 113.393102, '广东省', '广州市', '番禺区', '贝岗村大街26号附近', '金融;atm'
'中国建设银行24小时自助银行(广州大学商业中心)', 23.047639, 113.378993, '广东省', '广州市', '番禺区', '广州市番禺区大学城中环西路206号广州大学商业中心F1', '金融;atm'
'中国银行24小时自助银行服务', 23.065878, 113.40254, '广东省', '广州市', '番禺区', '广东省广州市番禺区贝岗村大街', '金融;atm'
'中国农业银行24小时自助银行(夏阳大街店)', 23.095218, 113.403282, '广东省', '广州市', '海珠区', '夏阳大街与盘石大街交叉口东南150米', '金融;atm'
'中国农业银行ATM(广州番禺大学城支行)', 23.047321, 113.378774, '广东省', '广州市', '番禺区', '广州市番禺区大学城中环西路206号广州大学商业中心F1', '金融;atm'
'中国工商银行24小时自助银行(大学城华工北路店)', 23.057323, 113.408742, '广东省', '广州市', '番禺区', '广州市番禺区大学城中环东路附近', '金融;atm'
'中国建设银行24小时自助银行', 23.0528, 113.408196, '广东省', '广州市', '番禺区', '广州市番禺区大学城中环东路华南理工大学生活区内', '金融;atm'
'招商银行24小时自助银行(大学城中环西路店)', 23.048647, 113.399617, '广东省', '广州市', '番禺区', '广州市番禺区大学城外环西路广东工业大学大学城校区', '金融;atm'
'广州农商银行ATM(北亭分理处)', 23.057547, 113.380796, '广东省', '广州市', '番禺区', '广州市番禺区北亭大街1巷1号附近', '金融;atm'
'交通银行ATM(红卫路店)', 23.088908, 113.355403, '广东省', '广州市', '海珠区', '石榴岗红卫路5号F栋首层', '金融;atm'
'广东财经大学自助银行ATM', 23.092956, 113.361122, '广东省', '广州市', '海珠区', '赤沙路21号', '金融;atm'
'中国工商银行24小时自助银行(广州大学城中环支行)', 23.045919, 113.38216, '广东省', '广州市', '番禺区', '外环西路230号附近', '金融;atm'
'中国农业银行24小时自助银行(广州大学城分理处)', 23.06127, 113.38964, '广东省', '广州市', '番禺区', '广州市番禺区大学城星海东路与青蓝街交叉路口往西约50米(星海音乐学院大学城校区)', '金融;atm'
'中国建设银行24小时自助银行(广州石榴岗支行)', 23.095342, 113.341353, '广东省', '广州市', '海珠区', '广州市海珠区石榴岗路与江海大道交叉路口往东南约100米(信步闲庭-东区)', '金融;atm'
'中国工商银行ATM', 23.075095, 113.397587, '广东省', '广州市', '番禺区', '广东省广州市番禺区逸仙大道', '金融;atm'
'中国建设银行24小时自助银行', 23.092987, 113.3649, '广东省', '广州市', '海珠区', '广东省广州市海珠区贵荣路与赤沙路交叉口东北50米', '金融;atm'
'中国建设银行ATM', 23.056551, 113.346393, '广东省', '广州市', '海珠区', '广东省广州市海珠区南洲路2008', '金融;atm'
'中国工商银行ATM', 23.054304, 113.397018, '广东省', '广州市', '番禺区', '广东省中医院大学城医院一楼大堂内', '金融;atm'
'中国工商银行24小时自助银行(华南支行大学城支行广工生活西区离行)', 23.049044, 113.393873, '广东省', '广州市', '番禺区', '广东省广州市番禺区大学城广东工业大学后勤综合楼1层3号', '金融;atm'
'广州农商银行(小洲支行)', 23.066078, 113.362454, '广东省', '广州市', '海珠区', '广东省广州市海珠区小洲艺术大楼(新滘公社小洲人民礼堂西南)', '金融;信用社'
'中国农业银行24小时自助银行服务(广州琶洲支行)', 23.101405, 113.373409, '广东省', '广州市', '海珠区', '广州市海珠区凤浦中路', '金融;atm'
'中国银行24小时自助银行服务(桂花港支行)', 23.061004, 113.406528, '广东省', '广州市', '番禺区', '广东省广州市番禺区大学城广药路', '金融;atm'
'中国农业银行24小时自助银行服务(广州新港东路支行)', 23.103844, 113.349247, '广东省', '广州市', '海珠区', '广东省广州市海珠区新港东路154号附近', '金融;atm'
'上海浦东发展银行24小时自助银行(琶洲支行)', 23.103704, 113.376283, '广东省', '广州市', '海珠区', '新港东路1066号', '金融;atm'
'中国建设银行24小时自助银行(大学城中环西路店)', 23.047835, 113.399664, '广东省', '广州市', '番禺区', '广东省广州市番禺区大学城中环西路附近', '金融;atm'
'中国建设银行24小时自助银行', 23.06276, 113.392722, '广东省', '广州市', '番禺区', '广州市番禺区青蓝街与大学城中心北大街交叉路口南侧(有米科技)', '金融;atm'
'中国建设银行24小时自助银行服务(华洲路店)', 23.07857, 113.358476, '广东省', '广州市', '海珠区', '广东省广州市海珠区华洲我们e家(华洲路南)', '金融;atm'
'中国建设银行24小时自助银行', 23.082602, 113.341775, '广东省', '广州市', '海珠区', '龙潭南约万年东街2号附近', '金融;atm'
'广州农商银行(华洲分理处)', 23.070516, 113.351836, '广东省', '广州市', '海珠区', '土华路1号1层', '金融;信用社'
'广州农商银行24小时自助银行', 23.053916, 113.415921, '广东省', '广州市', '番禺区', '广州市番禺区穗石大道与双桂街交叉路口西北侧(情缘酒店东北侧)', '金融;atm'
'广州农商银行24小时自助银行(凤浦支行)', 23.100064, 113.40489, '广东省', '广州市', '海珠区', '广东省广州市海珠区新港东路2438号附近', '金融;atm'
'广州农商银行(琶洲支行)', 23.100006, 113.404954, '广东省', '广州市', '海珠区', '广东省广州市海珠区新港东路2358号附近', '金融;信用社'
'中国建设银行24小时自助银行(康陵路)', 23.049054, 113.393626, '广东省', '广州市', '番禺区', '广东省广州市番禺区国医西路广东工业大学生活区西区学生公寓西七栋', '金融;atm'
'中国建设银行24小时自助银行', 23.078827, 113.355204, '广东省', '广州市', '海珠区', '华洲路109号b座附近', '金融;atm'
'中国工商银行24小时自助银行(广工大医院南)', 23.048269, 113.400453, '广东省', '广州市', '番禺区', '大学城外环西路100号广东工业大学附近', '金融;atm'
'广州农商银行ATM(广州大学商业中心)', 23.048049, 113.379456, '广东省', '广州市', '番禺区', '广州市番禺区大学城中环西路206号广州大学商业中心F1', '金融;atm'
'广州农商银行24小时自助银行(南亭分理处)', 23.041859, 113.394448, '广东省', '广州市', '番禺区', '广州市番禺区新造镇南亭村南亭大道40之1号', '金融;atm'
'广州农商银行24小时自助银行(土华支行)', 23.074822, 113.362683, '广东省', '广州市', '海珠区', '土华村华洲路189号', '金融;atm'
'广州农商银行-4小时自助银行', 23.09296, 113.365271, '广东省', '广州市', '海珠区', '赤沙路自编45-6', '金融;atm'
'广州市农村商业银行(24小时自助服务)', 23.074481, 113.359032, '广东省', '广州市', '海珠区', '广东省广州市海珠区土华路108号附近', '金融;atm'
'广州市商业银行ATM', 23.044007, 113.375739, '广东省', '广州市', '番禺区', '广东省广州市番禺区广州大学行政西楼', '金融;atm'
'广州农商银行24小时自助银行(仑头支行)', 23.079867, 113.379518, '广东省', '广州市', '海珠区', '广州市海珠区仑头环村南路与环村南路交叉路口往北约100米(广州五行商务酒店东南侧约150米)', '金融;atm'
'广州农商银行24小时自助银行(沙溪大道)', 23.039626, 113.352504, '广东省', '广州市', '番禺区', '广州市番禺区榕江街5-7号附近', '金融;atm'
'广州农商银行(琶洲支行)', 23.104538, 113.389009, '广东省', '广州市', '海珠区', '蟠龙新街1号1层7-8、18-19号', '金融;信用社'
'广州农商银行24小时自助银行(华洲分理处)', 23.0705, 113.351791, '广东省', '广州市', '海珠区', '广州市海珠区土华路与华泰横路交叉路口东北侧(樱花小筑酒店)', '金融;atm'
'广州农商银行(新洲码头支行)', 23.091072, 113.415675, '广东省', '广州市', '海珠区', '新洲路与新港东路交叉口东50米', '金融;信用社'
'中国工商银行离行式自助服务区(广州市吉盛伟邦)', 23.103553, 113.374209, '广东省', '广州市', '海珠区', '广东省广州市海珠区新港东路1000号吉盛伟邦里面', '金融;atm'
'樱花小筑酒店-自动取款机', 23.070577, 113.351556, '广东省', '广州市', '海珠区', '华洲街土华路1号', '金融;atm'
'中国工商银行24小时自助银行(广州大学城支行)', 23.044196, 113.407255, '广东省', '广州市', '番禺区', '广州市番禺区广东工业大学大学城校园教学区基础实验4号楼首层', '金融;atm'
'广州市农村商业银行(南亭分理处)', 23.041762, 113.394372, '广东省', '广州市', '番禺区', '番禺区南亭大道45号', '金融;信用社'
'农村商业银行(北山支行)', 23.088943, 113.376378, '广东省', '广州市', '海珠区', '广州市海珠区北山大街3号', '金融;信用社'
'广州市农村商业银行(仑头支行)', 23.079876, 113.379465, '广东省', '广州市', '海珠区', '海珠区仑头环村南路11-101号', '金融;信用社'
'广州市农村商业银行(北亭分理处)', 23.057538, 113.380803, '广东省', '广州市', '番禺区', '番禺区北亭村北亭大街77号之2号', '金融;信用社'
'广州市农村商业银行(土华支行)', 23.07485, 113.362711, '广东省', '广州市', '海珠区', '广东省广州市海珠区土华村华洲路189号', '金融;信用社'
'广州市农村商业银行(赤沙支行)', 23.092858, 113.365014, '广东省', '广州市', '海珠区', '广州市海珠区赤沙村赤沙路35号', '金融;信用社'
'广州市农村商业银行(琶洲支行)', 23.104732, 113.388743, '广东省', '广州市', '海珠区', '广东省广州市海珠区新港东路1643-11号', '金融;信用社'
'广州农商银行(穗石分理处)', 23.053956, 113.416031, '广东省', '广州市', '番禺区', '穗石村穗石大道54号', '金融;信用社'
'中国工商银行离行式自助服务区(华南支行大学城支行)', 23.04564, 113.402223, '广东省', '广州市', '番禺区', '广州市番禺区广东工业大学大学城校园教学区基础实验4号楼首层', '金融;atm'
'中国工商银行离行式自助银行(华南支行大学城支行)', 23.050415, 113.39443, '广东省', '广州市', '番禺区', '广州市番禺区广东工业大学生活西区首层', '金融;atm'
'中国工商银行24小时自助银行(广州番禺星河湾海怡半岛支行)', 23.039606, 113.349741, '广东省', '广州市', '番禺区', '广州市番禺区沙溪大道480号海怡半岛花园公建3栋(肉菜市场)商业街一层商铺C16号铺', '金融;atm'
'小洲艺术大楼农商银行-3栋', 23.066244, 113.362661, '广东省', '广州市', '海珠区', '华洲街道小洲村小洲艺术大楼农商银行3栋', '房地产;内部楼栋'
'中国银行(黄埔支行)', 23.105031, 113.469603, '广东省', '广州市', '黄埔区', '黄埔东路684号', '金融;银行'
'中国银行(广州番禺化龙支行)', 23.043868, 113.464134, '广东省', '广州市', '番禺区', '广州市番禺区化龙镇工业路1号', '金融;银行'
'中国银行(新造支行)', 23.042908, 113.422992, '广东省', '广州市', '番禺区', '广州市番禺区新造镇新广路16号地铺1-7号', '金融;银行'
'平安银行(广州丰乐路支行)', 23.104989, 113.462867, '广东省', '广州市', '黄埔区', '广州市黄埔区丰乐南路408号(近黄埔花园)', '金融;银行'
'中国建设银行', 23.102598, 113.451387, '广东省', '广州市', '黄埔区', '广东省广州市黄埔区荔香路38号大院39号附近', '金融;银行'
'中国银行(广州港湾路支行)', 23.104629, 113.455379, '广东省', '广州市', '黄埔区', '广州市黄埔区港湾路258号', '金融;银行'
'中国农业银行(广州番禺化龙支行)', 23.046935, 113.461495, '广东省', '广州市', '番禺区', '广州市番禺区化龙龙源路109号', '金融;银行'
'兴业银行(黄埔花园社区支行)', 23.105591, 113.462764, '广东省', '广州市', '黄埔区', '广州市黄埔区丰乐南路与黄埔东路交叉路口往南约100米(惠润广场)', '金融;银行'
'中国工商银行(金港支行)', 23.104443, 113.45546, '广东省', '广州市', '黄埔区', '广州市黄埔港湾路238号', '金融;银行'
'中国邮政储蓄银行(中山大道东邮局营业部)', 23.105501, 113.452994, '广东省', '广州市', '黄埔区', '广东省广州市黄埔区中山大道东500号首层', '金融;银行'
'中国工商银行(广州红山支行)', 23.100289, 113.48425, '广东省', '广州市', '黄埔区', '广州市黄埔文冲船厂东区45幢', '金融;银行'
'中国农业银行(广州红山支行)', 23.099954, 113.484603, '广东省', '广州市', '黄埔区', '广东省广州市黄埔区红山双沙市场综合楼西侧首层', '金融;银行'
'中国农业银行(广州番禺新造支行)', 23.042759, 113.424865, '广东省', '广州市', '番禺区', '广东省广州市番禺区新造镇兴华路61号', '金融;银行'
'中国农业银行(广州长洲支行)', 23.079804, 113.425739, '广东省', '广州市', '黄埔区', '广州市黄埔区长洲镇金洲北路569号', '金融;银行'
'平安银行24小时(丰乐路支行)', 23.104974, 113.46283, '广东省', '广州市', '黄埔区', '丰乐南路406-416号', '金融;atm'
'中国邮政储蓄银行(广州新造支行)', 23.041629, 113.424587, '广东省', '广州市', '番禺区', '广州市番禺区永兴路与兴华路交叉路口往西南约50米(新造镇人民政府东侧)', '金融;银行'
'中国邮政储蓄银行(鱼珠邮局营业部)', 23.105038, 113.436492, '广东省', '广州市', '黄埔区', '广州市黄埔区黄埔大道东自编933号', '金融;银行'
'中国邮政储蓄银行24小时自助银行(中山大道东邮局营业部)', 23.10545, 113.453071, '广东省', '广州市', '黄埔区', '中山大道东500号', '金融;atm'
'中国邮政储蓄银行(长洲营业所)', 23.079778, 113.430005, '广东省', '广州市', '黄埔区', '广东省广州市黄埔区长洲街金洲北路516号', '金融;银行'
'中国银行24小时自助银行(广州港湾路支行)', 23.104725, 113.455405, '广东省', '广州市', '黄埔区', '港湾路258号', '金融;atm'
'中国银行', 23.09129, 113.433012, '广东省', '广州市', '黄埔区', '广东省广州市黄埔区军校路170号院附近', '金融;银行'
'广州农商银行24小时自助银行', 23.104575, 113.447038, '广东省', '广州市', '黄埔区', '广州市黄埔区', '金融;atm'
'中国邮政储蓄银行24小时自助银行(新造营业所)', 23.041629, 113.424587, '广东省', '广州市', '番禺区', '广州市番禺区永兴路与兴华路交叉路口往西南约50米(新造镇人民政府东侧)', '金融;atm'
'广州市农村商业银行(文冲支行)', 23.105856, 113.474303, '广东省', '广州市', '黄埔区', '黄埔区石化路58号', '金融;信用社'
'中国农业银行24小时自助银行(化龙支行)', 23.046974, 113.461277, '广东省', '广州市', '番禺区', '广东省广州市番禺区龙源路109', '金融;atm'
'中国银行24小时自助银行(黄埔东路店)', 23.105058, 113.469731, '广东省', '广州市', '黄埔区', '黄埔东路682、686', '金融;atm'
'中国建设银行24小时自助银行', 23.102391, 113.484014, '广东省', '广州市', '黄埔区', '广东省广州市黄埔区红山三路101号', '金融;atm'
'中国邮政储蓄银行24小时自助银行(文冲营业所)', 23.10082, 113.482718, '广东省', '广州市', '黄埔区', '广新路615', '金融;atm'
'广州农商银行24小时自助银行(文冲支行)', 23.105815, 113.474336, '广东省', '广州市', '黄埔区', '石化路58', '金融;atm'
'中国银行24小时自助银行(化龙支行)', 23.043665, 113.464259, '广东省', '广州市', '番禺区', '化龙镇工业路1号', '金融;atm'
'中国邮政储蓄银行(文冲邮局营业部)', 23.100766, 113.48271, '广东省', '广州市', '黄埔区', '广东省广州市黄埔区广新路615号', '金融;银行'
'中国银行(单证处理中心)', 23.104998, 113.469559, '广东省', '广州市', '黄埔区', '广州市黄埔区黄埔东路682号', '金融;银行'
'中国工商银行24小时自助银行(广州黄埔军校支行)', 23.089534, 113.437095, '广东省', '广州市', '黄埔区', '黄埔区军校路1号', '金融;atm'
'广州农商银行(双沙支行)', 23.099387, 113.486505, '广东省', '广州市', '黄埔区', '黄埔东路1379-1381号', '金融;信用社'
'中国农业银行24小时自助银行(广州红山支行)', 23.099963, 113.484595, '广东省', '广州市', '黄埔区', '大沙镇双沙市场综合楼1层西侧', '金融;atm'
'广州市农村商业银行24小时自助银行(岗嘴支行)', 23.080183, 113.423323, '广东省', '广州市', '黄埔区', '金洲北路728', '金融;atm'
'中国银行24小时自助银行服务(广州番禺新造支行)', 23.042817, 113.423063, '广东省', '广州市', '番禺区', '新造镇新广路16号地铺1-7号', '金融;atm'
'中国邮政储蓄银行24小时自助银行(鱼珠邮局营业部)', 23.10495, 113.436502, '广东省', '广州市', '黄埔区', '黄埔大道东933号之1号', '金融;atm'
'中国农业银行24小时自助银行服务(广州番禺新造支行)', 23.0428, 113.42486, '广东省', '广州市', '番禺区', '广东省广州市番禺区兴华路61', '金融;atm'
'中国农业银行24小时自助银行(金洲北路)', 23.08011, 113.424209, '广东省', '广州市', '黄埔区', '广东省广州市黄埔区金洲北路609', '金融;atm'
'交通银行24小时自助银行(黄埔花园支行)', 23.105548, 113.462773, '广东省', '广州市', '黄埔区', '广州市黄埔区黄埔东路298号惠润广场F1', '金融;atm'
'中国农业银行ATM(文船路)', 23.09637, 113.4803, '广东省', '广州市', '黄埔区', '广东省广州市黄埔区文船路1号文冲船厂大门东侧', '金融;atm'
'交通银行24小时自助银行(祥晖大厦西南)', 23.099544, 113.485931, '广东省', '广州市', '黄埔区', '黄埔东路1323', '金融;atm'
'广发银行ATM', 23.048806, 113.432155, '广东省', '广州市', '番禺区', '景秀路59号', '金融;atm'
'广州农商银行(港湾分理处)', 23.104127, 113.455529, '广东省', '广州市', '黄埔区', '广州市黄埔区港湾路224-226号', '金融;信用社'
'广州农商银行(下庄分理处)', 23.089747, 113.438487, '广东省', '广州市', '黄埔区', '金洲北路71号', '金融;信用社'
'广州农商银行(龙源支行)', 23.048416, 113.457481, '广东省', '广州市', '番禺区', '广州市番禺区龙源路1号', '金融;信用社'
'中国邮政储蓄银行24小时自助银行(长洲营业所)', 23.079588, 113.429978, '广东省', '广州市', '黄埔区', '广东省广州市黄埔区长洲街金洲北路516号临街B栋18号首层商铺', '金融;atm'
'中国建设银行24小时自助银行(荔香路)', 23.10256, 113.451508, '广东省', '广州市', '黄埔区', '广州市黄埔区荔香路与海员路交叉路口往北约50米(星荟购物广场)', '金融;atm'
'广州农商银行24小时自助银行(兴华分理处)', 23.043449, 113.424087, '广东省', '广州市', '番禺区', '新造镇兴华路20号', '金融;atm'
'广州农商银行24小时自助银行(沙浦分理处)', 23.096073, 113.491756, '广东省', '广州市', '黄埔区', '沙浦西七巷4-1', '金融;atm'
'广州农商银行24小时自助银行服务(亭南路)', 23.048362, 113.457235, '广东省', '广州市', '番禺区', '广东省广州市番禺区化龙镇龙源路1号', '金融;atm'
'广州农商银行24小时自助银行(港湾分理处)', 23.104211, 113.455569, '广东省', '广州市', '黄埔区', '港湾路224-226号', '金融;atm'
'广州农商银行24小时自助银行(双沙支行)', 23.09937, 113.486462, '广东省', '广州市', '黄埔区', '黄埔东路1379～1381号', '金融;atm'
'中国银行24小时自助银行(谷围路)', 23.042985, 113.441062, '广东省', '广州市', '番禺区', '广东省广州市番禺区谷围新村百越商场万兴农家店', '金融;atm'
'广州农商银行24小时自助银行(下庄分理处)', 23.089756, 113.438522, '广东省', '广州市', '黄埔区', '广东省广州市黄埔区金洲北路71', '金融;atm'
'广州农商银行24小时自助银行服务(荔香路店)', 23.104001, 113.450946, '广东省', '广州市', '黄埔区', '荔香路120号', '金融;atm'
'中国银行24小时自助银行', 23.091236, 113.433099, '广东省', '广州市', '黄埔区', '广东省广州市黄埔区军校路170号院附近', '金融;atm'
'广州农商银行ATM(沙路分理处)', 23.064396, 113.456827, '广东省', '广州市', '番禺区', '化龙镇沙亭村彩虹东2街1号', '金融;atm'
'广州黄埔融和村镇银行24小时自助银行(港湾支行)', 23.101932, 113.456388, '广东省', '广州市', '黄埔区', '广东省广州市黄埔区港湾路78号附近', '金融;atm'
'中国工商银行24小时自助银行(广州金港支行)', 23.104405, 113.455542, '广东省', '广州市', '黄埔区', '港湾路238', '金融;atm'
'广州市农村商业银行(大沙支行)', 23.103992, 113.450955, '广东省', '广州市', '黄埔区', '黄埔区荔香路120号', '金融;信用社'
'广州农商银行(新造支行)', 23.044016, 113.423022, '广东省', '广州市', '番禺区', '新造镇兴华路20号', '金融;信用社'
'中国工商银行24小时自助银行(红山支行)', 23.100311, 113.484272, '广东省', '广州市', '黄埔区', '广新路641号', '金融;atm'
'广州市农村商业银行(化龙支行)', 23.045264, 113.462209, '广东省', '广州市', '番禺区', '广州市番禺区龙源路146号', '金融;信用社'
'广州市农村商业银行(谷围新村支行)', 23.041042, 113.442637, '广东省', '广州市', '番禺区', '番禺区新造镇兴业路谷围新村谷围大道第1座', '金融;信用社'
'广州农商银行(岗嘴支行)', 23.080198, 113.423358, '广东省', '广州市', '黄埔区', '广东省广州市黄埔区金洲北路724号附近', '金融;信用社'
'交通违法处理终端机(中国农业银行24小时自助银行红山支行)', 23.099903, 113.484616, '广东省', '广州市', '黄埔区', '双沙市场综合楼西侧首、2层农业银行', '金融;atm'
